stop_id,stop_code,stop_name,stop_lat,stop_lon,location_type,wheelchair_boarding
20311714,BEAGR1,"BEAUVAIS - Gare routière",49.4268067568,2.0844172888,0,1
20311626,AGZCF1,"AGNETZ - CFA - Maison du bâtiment",49.3865851898,2.3952381959,0,1
20311619,ABBGR1,"ABBECOURT - Gros poirier",49.3648050086,2.1627666276,0,1
20311637,AMBBA1,"AMBLAINVILLE - Bas",49.2073051202,2.1224385112,0,1
20311639,AMBPL1,"AMBLAINVILLE - Place",49.2018175671,2.1198836506,0,1
20311650,ANDAN1,"ANDEVILLE - Angleterre",49.2691057343,2.1616694663,0,1
20311652,ANDOC2,"ANDEVILLE - Octroi",49.2572257287,2.1597548912,0,1
20311651,ANDDU1,"ANDEVILLE - la Fourche",49.2642980355,2.163980181,0,
20311790,BSTCL1,"BAILLEUL-SUR-THERAIN - Clos trupet",49.3881752404,2.2159696578,0,
20311725,BEAPA1,"BEAUVAIS - Parking calvin",49.4327029382,2.0786310079,0,
20311713,BEAGA1,"BEAUVAIS - Gare",49.4265938948,2.0878810248,0,
20311728,BEAPO1,"BEAUVAIS - Porte de bresles",49.4332298512,2.0933124527,0,
20311730,BEAST1,"BEAUVAIS - Stade",49.4311796417,2.1118224975,0,
20311853,CGARE1,"COMPIÈGNE - Gare",49.4214852461,2.8239780541,0,1
20311834,CEBSA1,"CUIGY-EN-BRAY - Saint-Leu",49.4442531833,1.8284130452,0,1
20311938,ESPLA1,"ESPAUBOURG - Les landrons rue villembray",49.4405204204,1.8722329298,0,
20312715,ESPLA3,"ESPAUBOURG - Les landrons RN31",49.4406574755,1.8728326428,0,
20311965,FERMA1,"FERRIÈRES-EN-BRAY - Mare aux canard",49.4764942784,1.7424940953,0,
20312052,GOIIT1,"GOINCOURT - L'Italienne",49.4248737753,2.021811278,0,
20312161,LBSEG1,"LABOISSIÈRE-EN-THELLE - Eglise",49.2883982711,2.1580334652,0,1
20311824,CAPGA1,"LACHAPELLE AUX POTS - Gare",49.4443457206,1.900685406,0,
20312206,LVSRN1,"LAVERSINES - RN31",49.4157533957,2.1975001187,0,
20312232,MERFA2,"MERU - Faurecia",49.2190458587,2.1301004972,0,
20312248,MFLRO2,"MORTEFONTAINE-EN-THELLE - Route de Laboissière",49.2693253417,2.1842904858,0,
20312311,NEHGE1,"LA NEUVILLE-EN-HEZ - Général Leclerc",49.4036148391,2.3258286152,0,1
20312312,NEHGG1,"LA NEUVILLE-EN-HEZ - Général de Gaulle",49.4029074732,2.326338943,0,
20312313,NEHPL1,"LA NEUVILLE-EN-HEZ - Plois",49.4062842968,2.31966858,0,
20312707,ONSVM11,"ONS-EN-BRAY - Vivier danger",49.4345064299,1.9201050638,0,
20312348,ONSRN1,"ONS-EN-BRAY - RN 31 Le Pont qui penche",49.418640439,1.9469513404,0,1
20312378,PCHSF1,"PONCHON - Rue des faïenciers-Pierrepont",49.3555946131,2.1876795913,0,
20312376,PCHRO1,"PONCHON - Roye RN1",49.3539757955,2.1775473376,0,
20312433,RYROU1,"ROYE - Route de Paris",49.3540319328,2.1775402869,0,1
20312430,RSPMO1,"LA RUE-SAINT-PIERRE - Monument",49.4105805499,2.2936927226,0,1
20312459,SEBFO1,"SAINT-AUBIN-EN-BRAY - Les Fontainettes - RN31",49.4367343459,1.8992625976,0,1
20312460,SEBFO2,"SAINT-AUBIN-EN-BRAY - Les Fontainettes",49.4367828989,1.8990280173,0,1
20312496,SGFDO1,"SAINT-GERMER-DE-FLY - 27 rue Douce rue",49.4467495403,1.7741722962,0,
20312499,SGFGU1,"SAINT-GERMER-DE-FLY - Guillenfosse",49.4457937934,1.8080836391,0,
20312503,SGFSA1,"SAINT-GERMER-DE-FLY - Sainte Denise",49.4447191989,1.8181499781,0,
20312542,SPAAV1,"SAINT-PAUL - L'Avelon",49.4185940433,2.0064918044,0,
20312543,SPABE1,"SAINT-PAUL - Le Becquet école",49.4227729629,1.9919420378,0,
20312602,THECE1,"THERDONNE - Centre",49.4191466495,2.1568991957,0,
20312030,GEBSH1,"GOURNAY-EN-BRAY - Collège Saint Hildevert",49.4807461593,1.7233909676,0,1
20311839,CERPR1,"CERGY - Préfecture RER",49.0378894634,2.0782615919,0,1
20312636,VALCE1,"VALLANGOUJARD - Centre",49.1377955911,2.1131008938,0,
20311655,ARRD91,"ARRONVILLE - D927",49.1800357089,2.1247408199,0,
20312614,TLLAE1,"TILLE - Aéroport",49.4602334475,2.112659295,0,
20312734,BTLRD2,"BRETEUIL - RD 1001 nord BA",49.6312756314,2.2919445778,0,
20312733,AMSRE1,"AMIENS - Gare St-Roch Quai C",49.8936760832,2.2845111694,0,
20311647,AMSCI1,"AMIENS - Cité providence BA",49.8791607566,2.2977343916,0,
20311716,BEAIF1,"BEAUVAIS - Ile-de-france",49.4242886133,2.0840871551,0,
20311708,BEACH2,"BEAUVAIS - Chopin",49.4168149807,2.0841610586,0,
20311715,BEAHA2,"BEAUVAIS - Lycée Jeanne Hachette",49.435594553,2.0824507495,0,
20311720,BEALA2,"BEAUVAIS - Lycée Paul Langevin",49.4161300024,2.1065136909,0,1
20311809,BVOCE1,"BEAUVOIR - Eglise",49.6031482161,2.3266321104,0,
20312023,FSLCE1,"FONTAINE-SAINT-LUCIEN - Centre",49.5012728112,2.1487710329,0,
20311963,FCTVE1,"FROCOURT - Vessencourt",49.3751341286,2.0977709608,0,
20312034,GGCRX1,"GUIGNECOURT - Route de Rieux",49.4802933601,2.1262452875,0,
20312262,MILMO1,"MILLY-SUR-THERAIN - Moimont",49.5184446835,1.9923880794,0,1
20312286,MSARO1,"LE MONT-SAINT-ADRIEN - Rome",49.4574942518,2.0033115799,0,
20312406,RAIMA1,"RAINVILLERS - Mairie",49.4081970209,2.0067894507,0,
20312546,SPACE1,"SAINT-PAUL - Centre",49.4282163638,2.0062592922,0,
20312445,SAVEG1,"SAVIGNIES - Eglise-Ecole",49.4653019766,1.9655685453,0,1
20312618,TLLST1,"TILLE - Stade",49.4615442167,2.1063530747,0,
20312695,WARPR1,"WARLUIS - Ecole primaire",49.3905046018,2.1413191291,0,1
20311674,AUXD91,"AUX MARAIS - D981",49.4138227303,2.0441311877,0,
20311675,AUXPL1,"AUX MARAIS - Place",49.4141542475,2.0419427235,0,
20312722,BORCA2,"BORNEL - Courcelles 2",49.1931506536,2.1829881304,0,
20311772,BORCE1,"BORNEL - Centre",49.1974944749,2.2094401881,0,1
20311950,ETOCE1,"ETOUY - Centre",49.4183354159,2.3642880693,0,
20311625,AGZCE3,"AGNETZ - Ronquerolles centre",49.4003009867,2.3828717316,0,
20311635,ALLVI1,"ALLONNE - Villers-sur-There",49.4136508129,2.1366803484,0,1
20311665,AUNPL2,"AUNEUIL - Place de la folie",49.3699236583,1.9962113057,0,
20312696,WARRD1,"WARLUIS - RD 1001",49.3905031081,2.1431701026,0,
20312032,GGCEG1,"GUIGNECOURT - Eglise",49.4829379603,2.1297232838,0,
20312285,MSAPL1,"LE MONT-SAINT-ADRIEN - Place",49.4462676764,2.0047624279,0,1
20312603,THEMO1,"THERDONNE - Le moulin",49.4204803945,2.1508555497,0,
20312604,THEWA1,"THERDONNE - Wagicourt",49.4251035471,2.1350510014,0,
20312360,OUDRI1,"OUDEUIL - Ribeauvillé mare",49.560492785,2.0217624724,0,1
20311623,ACHRD2,"ACHY - RD901",49.5568208159,1.9788385657,0,1
20311622,ACHPO1,"ACHY - Polhay",49.5541602733,1.9561912229,0,1
20311640,AMBSA1,"AMBLAINVILLE - Sandricourt",49.2065150333,2.1411304709,0,1
20311654,ANSAN1,"ANSAUVILLERS - Ansauvillers",49.5647431757,2.3866984531,0,1
20311666,AUNSA1,"AUNEUIL - Rue de Saint Léger",49.3755976699,2.0013620595,0,
20311659,AUNCO1,"AUNEUIL - Collège Le point du jour",49.3685461396,1.9912063803,0,1
20311667,AUNSI1,"AUNEUIL - Sinancourt",49.3867838633,1.991745623,0,
20311668,AUNTI1,"AUNEUIL - Tiersfontaine",49.3713541145,2.0191206072,0,
20311687,BCHD11,"MONTCHEVREUIL - Bachivillers RD115",49.2907877411,1.961459032,0,
20311697,BCVGA1,"BACOUEL - Gare",49.6264428637,2.3852080203,0,1
20311788,BSTCE1,"BAILLEUL-SUR-THERAIN - Centre",49.3849918937,2.2217487843,0,
20311792,BSTGA1,"BAILLEUL-SUR-THERAIN - Gare",49.3922545679,2.2082660348,0,1
20311787,BSTAL1,"BAILLEUL-SUR-THERAIN - L'alouette",49.3786762585,2.231037185,0,1
20311699,BDDEC1,"BEAUDEDUIT - Mairie",49.6787827972,2.0651706748,0,1
20311763,BLNSO1,"LES HAUTS TALICAN - Beaumont Sortie",49.3283333711,2.0063814447,0,
20311759,BLNCH1,"LES HAUTS TALICAN - Chantoiseau",49.3353991098,1.9904502214,0,1
20311761,BLNJO1,"LES HAUTS TALICAN - Jouy la Grange",49.3338844442,1.9741610743,0,
20311709,BEADE1,"BEAUVAIS - Délie",49.4102437083,2.1135510988,0,
20311719,BEAJU1,"BEAUVAIS - St Just Des Marais poste",49.4338976193,2.0614003205,0,
20311737,BEGCE1,"BELLE-EGLISE - Centre",49.1922958446,2.2195188185,0,
20311733,BEBCA1,"BERNEUIL-EN-BRAY - Carrefour rue des tilleuls",49.3464150425,2.0694706417,0,1
20311732,BEBAU2,"BERNEUIL-EN-BRAY - Rue autin",49.3494031619,2.0639607278,0,
20311755,BLGH11,"BLACOURT - La Haute rue carrefour",49.4568680341,1.8702208283,0,
20311746,BLACE1,"BLARGIES - Ecole",49.6719024408,1.7647663423,0,1
20311769,BOIEC1,"LA CORNE EN VEXIN - Boissy le Bois",49.2783406154,1.9406319486,0,1
20311778,BOTMA1,"BOUTENCOURT - Mairie",49.3200374879,1.8590511864,0,
20311813,BVSCE1,"BOUVRESSE - Mairie",49.6546253627,1.7529882446,0,
20311784,BSLGE1,"BRESLES - Rue JF Kennedy",49.4108340733,2.2483293818,0,1
20311781,BRICE1,"BRIOT - Centre",49.6507238975,1.9236839223,0,1
20311766,BMBGA1,"BROMBOS - Garderie",49.6440437725,1.8870279482,0,1
20311767,BMBVI1,"BROMBOS - 15, rue de la ville",49.6445449332,1.8877591378,0,
20311800,BUCCE1,"BUCAMPS - Centre",49.5229151959,2.3210427178,0,1
20311881,CPXCO1,"CAMPEAUX - Courcelles",49.6113792945,1.7479957835,0,1
20311894,CTHCE1,"CATHEUX - Centre",49.6523923587,2.1203724582,0,
20311852,CFFUM1,"CATILLON-FUMECHON - Fumechon",49.5213786981,2.3680219823,0,
20311895,CVGBN1,"CAUVIGNY - Fayel rue de bonvillers",49.3146251647,2.2276698068,0,1
20311830,CBYME1,"CHAMBLY - Mesnil-Saint-Martin D923",49.182495834,2.2344399073,0,1
20311846,CEVGR1,"CHAUMONT-EN-VEXIN - Grand cerf",49.2648831784,1.8826114281,0,1
20311850,CEVRO1,"CHAUMONT-EN-VEXIN - Rue Roger Blondeau",49.2665215572,1.8900508549,0,1
20311848,CEVJA1,"CHAUMONT-EN-VEXIN - Rue du jard",49.2668372506,1.8737896117,0,1
20311860,CHXRO1,"CHEPOIX - Roland mariage",49.6049331287,2.3792886024,0,
20311856,CHOCE1,"CHOQUEUSE-LES-BENARDS - Centre",49.6519417662,2.0805527446,0,1
20311831,CCCEN1,"CORBEIL-CERF - Centre",49.2804696454,2.1042558479,0,1
20311877,CORCR1,"CORMEILLES - Rue du crocq",49.6377709904,2.188331619,0,1
20311878,CORGR1,"CORMEILLES - Grande rue",49.6392616513,2.1900316796,0,
20312185,LSGCE1,"LE COUDRAY-SAINT-GERMER - Centre",49.41147349,1.8373525858,0,1
20312187,LSGRO1,"LE COUDRAY-SAINT-GERMER - Les routis",49.3941829856,1.8255730087,0,1
20311871,CLLPE1,"CRILLON - La petite france",49.516171301,1.9274409269,0,1
20312165,LCRPR1,"LE CROCQ - Rue principale",49.6275329467,2.1796452386,0,1
20311887,CSCRD1,"CROISSY-SUR-CELLE - Eglise - RD11",49.6977715722,2.1719415428,0,1
20311832,CEBEA1,"CUIGY-EN-BRAY - Les eaux ouies",49.4305526285,1.8469831117,0,
20311904,DARCE1,"DARGIES - Ecole Mairie",49.701534635,1.988855477,0,1
20311911,DOMMA1,"DOMELIERS - Mairie-école",49.6331097357,2.1645563476,0,1
20311923,ERNPL1,"ERNEMONT-BOUTAVENT - Place",49.5877725116,1.8063845664,0,
20311930,ESMEG1,"ESCAMES - D133",49.5521052675,1.798078905,0,1
20311927,ESCLI1,"ESCHES - Liecourt Centre",49.2392412091,2.1807223017,0,1
20311928,ESCVI1,"ESCHES - Vignoru",49.216663974,2.1558692682,0,1
20311942,ESPRD1,"ESPAUBOURG - Rd 109",49.4202179041,1.8650294491,0,
20311964,FERGA1,"FERRIÈRES-EN-BRAY - Gare",49.4813935343,1.7378048885,0,1
20311971,FEUPM1,"FEUQUIERES - Place du marché",49.6469279326,1.8452452947,0,
20311968,FEUCI1,"FEUQUIERES - Cité des acacias",49.6517753269,1.8353843807,0,
20311975,FLECE1,"FLEURY - Centre",49.2417087787,1.9687342675,0,1
20311959,FBCEN1,"FONTAINE-BONNELEAU - Centre",49.6597225037,2.1497222119,0,
20311958,FBBON1,"FONTAINE-BONNELEAU - Bonneleau - Rd 106",49.6736119246,2.1638821193,0,
20312000,FOND11,"FONTENAY-TORCY - D133",49.5686322462,1.7692564069,0,
20312005,FORHO1,"FORMERIE - Hôtel de ville",49.6497603788,1.7311632923,0,1
20311991,FLYCE1,"FOUILLOY - Centre",49.7341021445,1.8252100475,0,1
20312013,FQNPA2,"FOUQUENIES - Passage à niveau",49.4716645616,2.0358314693,0,
20312015,FQRRO1,"FOUQUEROLLES - Route du Fay St Quentin",49.4579748468,2.2142903533,0,
20311995,FMORM1,"MONTCHEVREUIL - L'ormeteau",49.3005930441,2.0120113696,0,1
20311998,FMTIR1,"MONTCHEVREUIL - Tirmont",49.2933331204,2.0252514921,0,
20311962,FCTCE1,"FROCOURT - Centre",49.3826332258,2.0868812338,0,
20312018,FROCE1,"FROISSY - Centre",49.5671277555,2.2219224361,0,
20312021,FROPE1,"FROISSY - Petit froissy",49.5735003443,2.2130637843,0,
20312047,GOIAR1,"GOINCOURT - Aristide Briand",49.4261143417,2.0299916427,0,
20312051,GOID91,"GOINCOURT - D981",49.4227747597,2.0425015573,0,1
20312048,GOICC1,"GOINCOURT - Centre commercial",49.4326726836,2.0457011482,0,
20312050,GOICI1,"GOINCOURT - Cimetière",49.4298799479,2.0433094324,0,
20312053,GOIRN1,"GOINCOURT - D931",49.4327545396,2.0451910729,0,
20312056,GRAPL1,"GRANDVILLIERS - Place Barbier",49.6654511236,1.9407507485,0,1
20312060,GRECH1,"GREMEVILLERS - Choqueuse centre",49.5622208281,1.9141895987,0,
20312058,GRECE1,"GREZ - Centre",49.6394439682,1.9786127863,0,1
20312169,LHMCE1,"LE HAMEL - Centre",49.6472138199,1.9922129885,0,
20312074,HANSS1,"HANVOILE - Rue des saules",49.5149043413,1.8733271536,0,
20312072,HANMA1,"HANVOILE - Rue Manoise",49.5175015078,1.8690164398,0,
20312073,HANRO1,"HANVOILE - Rue rouge",49.5042462241,1.8861724409,0,
20312079,HCTEG1,"HAUCOURT - Eglise",49.5127746405,1.9363830559,0,1
20312080,HDVCL1,"HAUDIVILLERS - Clos des peupliers",49.4890719408,2.2387579919,0,1
20312124,HTBDR1,"HAUTBOS - La dreue",49.6268381652,1.8845726622,0,1
20312125,HTBPR1,"HAUTBOS - Rue principale",49.6278457103,1.8702399898,0,1
20312095,HEPEC1,"HAUTE EPINE - Ecole",49.5827471782,2.0117198089,0,1
20312088,HEICE1,"HEILLES - Centre",49.3338749494,2.2627694391,0,1
20312117,HRLCE1,"LA HERELLE - Centre",49.5909528137,2.413478086,0,
20312566,SRCCH1,"SARCUS - La chaussée",49.6001430076,1.7699545336,0,1
20312098,HERGA1,"HERMES - Gare",49.354015701,2.2430292651,0,1
20312101,HERLA1,"HERMES - Laiterie",49.3605538491,2.2436095365,0,
20312102,HERMA1,"HERMES - Marguerie",49.3661154216,2.2447195849,0,1
20312110,HODCE1,"HODENC-L'EVEQUE - Centre 1",49.3374178394,2.1501774999,0,1
20312119,HSSCE1,"LA HOUSSOYE - D981",49.3552731523,1.9430520385,0,
20312126,IVRCE1,"IVRY-LE-TEMPLE - Centre",49.2288851847,2.0291609885,0,1
20312130,JOUEG1,"JOUY-SOUS-THELLE - Eglise",49.3181198147,1.9710953712,0,
20312135,JUVQU1,"JUVIGNIES - Quatre vents",49.5122025913,2.0895511812,0,1
20312152,LBOGA1,"LABOSSE - Gare",49.3527733584,1.9216621482,0,1
20311820,CAPAR1,"LACHAPELLE-AUX-POTS - Armentières lavoir",49.4599928567,1.9299858455,0,
20311891,CSPBO1,"LACHAPELLE-SAINT-PIERRE - Bois Morel",49.2748036302,2.2435296955,0,
20311893,CSPEC1,"LACHAPELLE-SAINT-PIERRE - Ecole",49.2685048384,2.2342199276,0,1
20311888,CSGBA1,"LACHAPELLE-SOUS-GERBEROY - Balleux",49.5536722134,1.8826007532,0,1
20311889,CSGCE1,"LACHAPELLE-SOUS-GERBEROY - Centre",49.5358430701,1.8696412471,0,1
20311827,CBECE1,"LACHAUSSEE-DU-BOIS-D'ÉCU - Centre",49.5582863341,2.172395175,0,1
20312190,LSOPO1,"LALANDE-EN-SON - Les pommiers",49.3880371238,1.7807349698,0,
20312140,LALPE1,"LALANDELLE - La petite Landelle Bonnière",49.3915729163,1.8807722942,0,1
20312182,LORMA1,"LORMAISON - Mairie",49.2564955478,2.106751039,0,1
20312184,LOUFA1,"LOUEUSE - Rue de Fay",49.6045940151,1.828667738,0,1
20312197,LUCRO1,"LUCHY - Rougemaison",49.5426498263,2.0988129176,0,
20312291,MSPMA1,"MAISONCELLE-SAINT-PIERRE - Mairie",49.5100003441,2.1278203288,0,1
20312292,MSPMA2,"MAISONCELLE-SAINT-PIERRE - Mairie2",49.5099175519,2.1279887814,0,1
20312213,MAUCE1,"MAULERS - Centre",49.5473512884,2.1676456036,0,1
20312238,MERLY1,"MERU - Lycée Condorcet",49.2359195157,2.1439477496,0,1
20312288,MSCEG1,"LE MESNIL-CONTEVILLE - Eglise",49.6681419461,2.0568129433,0,1
20312297,MTHLA2,"LE MESNIL-THERIBUS - Les Landes Place",49.3138507545,2.005314411,0,
20312258,MILGA1,"MILLY-SUR-THERAIN - Gare",49.5048929866,1.9892932773,0,1
20312256,MILET1,"MILLY-SUR-THERAIN - Etangs de Milly",49.4947538067,1.9985988746,0,
20312273,MOLLO1,"MOLIENS - Lotissement",49.6633226715,1.8194349963,0,1
20312276,MOLPL1,"MOLIENS - Pleuville",49.6659224563,1.8236148677,0,
20312214,MBRAB1,"MONTREUIL-SUR-BRÊCHE - Abribus",49.5055540433,2.2802596576,0,1
20312293,MTACE2,"MONTREUIL-SUR-THERAIN - Place",49.3811165327,2.191526601,0,1
20312303,MVLFO1,"MORVILLERS - La fourche",49.5768611903,1.8767918925,0,
20312281,MORMA1,"MORY-MONTCRUX - Mairie",49.5906176759,2.3941416529,0,
20312220,MCLCE1,"MOUCHY-LE-CHÂTEL - Centre",49.3262814751,2.2494181176,0,1
20312223,MDGCE1,"MUIDORGE - Centre",49.5308629526,2.1409894351,0,1
20312317,NEUCR1,"NEUVILLE-BOSC - Cresnes",49.197542063,2.021423033,0,1
20312319,NEUGR1,"NEUVILLE-BOSC - Grand alléré",49.2123263589,2.0196506379,0,
20312320,NEUPE1,"NEUVILLE-BOSC - Petit alléré",49.2081329206,2.0155094104,0,
20312321,NEUTU1,"NEUVILLE-BOSC - Tumbrel",49.2049248854,1.9974206102,0,
20312335,NSOCE1,"LA NEUVILLE-SUR-OUDEUIL - Centre",49.5741404254,2.0091461528,0,1
20312334,NRMCE1,"NOIREMONT - Eglise",49.5508469608,2.211320707,0,1
20312331,NOYCE1,"NOYERS-SAINT-MARTIN - Centre",49.55220299,2.2624100142,0,1
20312344,OMEMA1,"OMECOURT - Mairie (L'Excuse)",49.6103002869,1.8451619177,0,1
20312354,OROBO1,"OROËR - Boursines",49.4919732988,2.1779002849,0,1
20312353,OROBD1,"OROËR - La boudinière",49.5094335442,2.1969201619,0,1
20312355,OROCE1,"OROËR - Centre",49.4950686616,2.160853181,0,
20312359,OUDMA1,"OUDEUIL - Mairie - Ecole",49.5468128573,2.0284244576,0,1
20312362,OURCE1,"OURSEL-MAISON - Centre",49.5960340596,2.1815317433,0,
20312367,PAIEC1,"PAILLART - Ecole",49.6682167522,2.3240077379,0,1
20312368,PAILI1,"PAILLART - Rue de la libération",49.6635011499,2.3181297702,0,1
20312384,PIEDE1,"PIERREFITTE-EN-BEAUVAISIS - Le détroit",49.4782646471,1.9508497291,0,1
20312383,PIECE1,"PIERREFITTE-EN-BEAUVAISIS - Centre",49.4729407541,1.9793885283,0,
20312393,PRCCA1,"PORCHEUX - Carrefour",49.3349550053,1.9251460105,0,1
20312396,PRCPE1,"PORCHEUX - Rue du petit boissy",49.3381596054,1.9283347423,0,
20312380,PEBCE1,"PUISEUX-EN-BRAY - Centre",49.4132713556,1.7827302999,0,1
20312400,PUIMA1,"PUITS-LA-VALLEE - Mairie",49.5823521652,2.1914872015,0,1
20312402,QAUQU1,"LE QUESNEL-AUBRY - Quesnel Aubry",49.5088830582,2.3089191155,0,1
20312415,REUEG1,"REUIL-SUR-BRÊCHE - Eglise",49.5195289864,2.2220305901,0,1
20312409,RCHGR1,"ROCHY-CONDE - Rue du gravier",49.402637202,2.1873049619,0,
20312420,ROMEC1,"ROMESCAMPS - Ecole",49.7122010762,1.8078453814,0,1
20312419,ROMCA1,"ROMESCAMPS - Carroix",49.7140721538,1.8221272455,0,
20312425,ROUMO1,"ROUVROY-LES-MERLES - Monument aux morts",49.6482357602,2.359045858,0,1
20312426,ROYBO1,"ROY-BOISSY - Boissy",49.5775936388,1.9341135792,0,
20312429,ROYRO1,"ROY-BOISSY - Roy",49.5832839446,1.9229735393,0,
20312456,SEBCL1,"SAINT-AUBIN-EN-BRAY - Les clerets",49.4277733302,1.8833326201,0,1
20312461,SEBGR1,"SAINT-AUBIN-EN-BRAY - Grande rue",49.4193114791,1.8803962567,0,
20312449,SCICE1,"SAINT-CREPIN-IBOUVILLERS - Centre",49.2629754623,2.0791412428,0,
20312451,SCIHA1,"SAINT-CREPIN-IBOUVILLERS - Haillancourt",49.2488832484,2.0338815371,0,1
20312452,SCIMA1,"SAINT-CREPIN-IBOUVILLERS - Mairie",49.2632344571,2.0702142824,0,1
20312454,SDECA1,"SAINT-DENISCOURT - Calvaire",49.6083526522,1.867514148,0,1
20312486,SGEFU1,"SAINTE-GENEVIEVE - La fusée",49.2853856124,2.2191399968,0,1
20312505,SGPCE1,"SAINT-GERMAIN-LA-POTERIE - Centre",49.445094116,1.9830150833,0,
20312497,SGFFL1,"SAINT-GERMER-DE-FLY - Fla",49.4325841533,1.793393783,0,
20312510,SJCRO1,"SAINT-JUST-EN-CHAUSSEE - Rotibequet",49.4963744895,2.4105275071,0,
20312447,SBRCE1,"SAINT-LEGER-EN-BRAY - Centre",49.3904928539,2.0259284716,0,
20312513,SMNCE1,"SAINT-MARTIN-LE-NOEUD - Centre",49.3952646563,2.0597010082,0,
20312427,ROYLA1,"ROY-BOISSY - Lannoy",49.5898139856,1.9121236454,0,
20312512,SMAVA1,"SAINT-MAUR - Rue de la vallée",49.6146123847,1.9155948267,0,1
20312528,SOCMO1,"SAINT-OMER-EN-CHAUSSEE - Monceaux",49.5204360977,2.0091792444,0,
20312530,SOCSA1,"SAINT-OMER-EN-CHAUSSEE - Rue de Sanguine",49.5397674119,2.0058514412,0,
20312531,SOCVI1,"SAINT-OMER-EN-CHAUSSEE - Villepoix",49.5394425346,2.0061123335,0,1
20312545,SPACA1,"SAINT-PAUL - Le Becquet calvaire",49.4232428975,2.0041113249,0,
20312547,SPAMA1,"SAINT-PAUL - Mare à foulon",49.4345794633,2.0107394379,0,
20312549,SPASO2,"SAINT-PAUL - Sorcy-Carrefour",49.4356927133,1.9789065127,0,
20312574,SSPST1,"SAINT-SAMSON-LA-POTERIE - Stade",49.5952726965,1.7405448856,0,
20312586,STHCE1,"SAINT-THIBAULT - Centre",49.7002586079,1.8454955683,0,1
20312568,SRCSA1,"SARCUS - Salle polyvalente",49.6859036485,1.8699842612,0,1
20312443,SARCE1,"SARNOIS - Centre",49.6783318803,1.9175038141,0,1
20312511,SLCPL1,"LE SAULCHOY - Place Marcel Dassault",49.6342301262,2.1410042671,0,1
20312464,SENRD1,"SENOTS - RD35",49.2660299697,1.991523735,0,
20312569,SRLMA1,"SEREVILLERS - Mairie",49.6392293024,2.431366059,0,
20312469,SERST1,"SERIFONTAINE - Stade",49.3594854071,1.7697018723,0,1
20312466,SERMA1,"SERIFONTAINE - Mairie",49.3552754145,1.7680327603,0,1
20312474,SETEC4,"SERIFONTAINE - Ecole Jean Jaurès et maternelle BOYER Arrivée",49.3552876273,1.7682406348,0,
20312475,SETEC5,"SERIFONTAINE - Ecole Jean Jaurès et maternelle BOYER Départ",49.355338984,1.7681773187,0,
20312476,SETEC6,"SERIFONTAINE - Ecole Jean Jaurès et maternelle BOYER",49.3553746404,1.7681184744,0,
20312506,SILCE1,"SILLY-TILLARD - Centre",49.3240035336,2.1579298732,0,
20312508,SILTI2,"SILLY-TILLARD - Tillard",49.33376267,2.1724741039,0,
20312533,SOMRD1,"SOMMEREUX - Rue du moulin",49.6758728041,1.991942999,0,
20312537,SONEG1,"SONGEONS - Eglise",49.5482363734,1.8532334412,0,1
20312539,SONMA1,"SONGEONS - Mal boufflets",49.5475425691,1.8554918369,0,
20312592,TARCE1,"TARTIGNY - Centre",49.6336125827,2.3597188857,0,1
20312600,THEBO1,"THERDONNE - Bourguillemont",49.4149556229,2.1626631028,0,
20312628,TSARD1,"THIEULOY-SAINT-ANTOINE - Rd901",49.6349610068,1.9462473567,0,
20312613,THXVI1,"THIEUX - 19 rue de la ville",49.5430537395,2.3147094528,0,1
20312612,THXTA1,"THIEUX - Rue Tassart",49.5407830876,2.3121294365,0,1
20312616,TLLMO1,"TILLE - Morlaine",49.4592846194,2.1375197162,0,
20312595,TCHCC1,"TRIE-CHÂTEAU - Centre commercial",49.2883760456,1.8082850598,0,
20312625,TRSCL2,"TROISSEREUX - Clos Saint Maurice",49.4823096741,2.0566985393,0,
20312626,TRSHO2,"TROISSEREUX - Houssoye le Farcy",49.4881623189,2.0698375819,0,1
20312630,TSSEC1,"TROUSSENCOURT - Ecole",49.6056108735,2.2551947127,0,1
20312623,TROCE1,"AUNEUIL - Troussures centre",49.3884234206,1.972001619,0,1
20312647,VDPEC1,"VALDAMPIERRE - Ecole",49.3037352083,2.0536995107,0,1
20312650,VELMA1,"VELENNES - Mairie",49.4726532631,2.1803501801,0,
20312675,VSBCE1,"VILLENEUVE-LES-SABLONS - Centre",49.2370334193,2.0762107458,0,1
20312680,VSSCE1,"VILLERS-SAINT-SEPULCRE - Centre",49.3640341362,2.2151799235,0,
20312683,VSSGA1,"VILLERS-SAINT-SEPULCRE - Gare",49.3678478987,2.2200240509,0,1
20312640,VBNCR1,"VILLERS-SUR-BONNIÈRES - Rue de Crillon",49.5382300688,1.9623550501,0,1
20312701,WELCE1,"WELLES-PERENNES - Centre",49.6073130118,2.4833766833,0,
20311673,AUXBO1,"AUX MARAIS - Bout riflé",49.4100048674,2.0386117393,0,
20311802,BUIBR2,"BUICOURT - La briqueterie",49.5354264306,1.8261173959,0,1
20312044,GISVH1,"GISORS - Collège Victor Hugo",49.2832028687,1.7697825784,0,
20312042,GISPP1,"GISORS - Collège Pablo Picasso",49.2865989266,1.7650462309,0,1
20312041,GISLY1,"GISORS - Lycée Louise Michel",49.2853129681,1.7800821031,0,1
20312128,JAMHA1,"JAMERICOURT - Hardencourt",49.2988256136,1.8732144178,0,1
20311617,ABBEC1,"ABBECOURT - Centre Ecole",49.3589958498,2.1572532117,0,1
20311658,ASLEC1,"ABBEVILLE-SAINT-LUCIEN - Ecole",49.5172136035,2.1699812982,0,1
20311621,ACHCE2,"ACHY - Centre",49.5554624554,1.9781249805,0,1
20311672,AUTCE1,"AUTEUIL - Centre",49.3413848355,2.0875008095,0,
20311671,AUTCA1,"AUTEUIL - Saint Quentin carrefour",49.3399936208,2.0958107088,0,1
20311695,BCVCE1,"BACOUEL - Centre",49.6176564416,2.3870339116,0,
20311789,BSTCH1,"BAILLEUL-SUR-THERAIN - Froidmont rue du château",49.3827850531,2.2432997892,0,1
20311794,BSTMC1,"BAILLEUL-SUR-THERAIN - Froidmont Mont César",49.3824045548,2.2339095321,0,1
20311745,BLABE1,"BLARGIES - Belleville",49.6799871978,1.7661599567,0,
20311753,BLEMA2,"BONNEUIL-LES-EAUX - Mairie",49.6786010284,2.2327506397,0,
20311768,BNSEG1,"BONNIERES - Rue de l'église",49.5101154865,1.9657241642,0,1
20311681,BBSBI1,"BOUBIERS - Rue de billoy",49.2205945058,1.869357086,0,1
20311806,BVEPL1,"BOURY-EN-VEXIN - Place du fort de ville",49.2414539909,1.7369431867,0,1
20311783,BSLCO1,"BRESLES - Collège Condorcet",49.4088840793,2.2444393564,0,1
20311782,BRIGR1,"BRIOT - La grange",49.6303638636,1.9158233582,0,1
20311765,BMBEC1,"BROMBOS - Ecole",49.6453720691,1.8873939825,0,1
20311780,BQRRO1,"BROQUIERS - Route principale",49.6599636757,1.8278650603,0,
20311684,BCENT1,"BROYES - Eglise",49.6279905847,2.4558844445,0,1
20311803,BUICE1,"BUICOURT - Centre",49.5402728261,1.8188839571,0,
20311804,BUIRE1,"BUICOURT - Renicourt",49.5315130635,1.8116009154,0,
20311819,CANPR1,"CANNY-SUR-THERAIN - Rue principale",49.6008488984,1.7175162366,0,1
20311851,CFCAT1,"CATILLON-FUMECHON - Catillon",49.5183226506,2.367748533,0,
20311896,CVGBO1,"CAUVIGNY - Bonvillers",49.3076420272,2.2177689814,0,
20311836,CEMCA1,"CEMPUIS - Marcel Callo",49.6584862378,1.9795770276,0,
20311855,CHBEC1,"CHAMBORS - Ecole",49.2602379134,1.814632417,0,1
20311849,CEVMA1,"CHAUMONT-EN-VEXIN - Collège G. de Maupassant",49.2716632967,1.8913817416,0,1
20311879,CORSC1,"CORMEILLES - Scolaire",49.6405524509,2.1936019485,0,
20312186,LSGEC1,"LE COUDRAY-SAINT-GERMER - Rue des écoles",49.4113741658,1.8383129891,0,1
20311884,CRCMA1,"COURCELLES-LES-GISORS - Mauréaumont",49.2578267059,1.7171520903,0,1
20311866,CLGCE1,"CRÈVECOEUR-LE-GRAND - Centre",49.6071340458,2.0766880219,0,1
20311868,CLGLY1,"CREVECOEUR-LE-GRAND - Lycée EREA",49.6039347525,2.081016849,0,1
20311870,CLLPA1,"CRILLON - Le pâtis enclos",49.5198756458,1.9154796265,0,1
20311869,CLLMA1,"CRILLON - Mairie",49.5203554675,1.9296519996,0,1
20311886,CSCEC2,"CROISSY-SUR-CELLE - Ecole",49.6975006442,2.1708322505,0,1
20312349,ONSSS1,"ONS-EN-BRAY - Rue des solons",49.4325030783,1.9233124607,0,1
20311833,CEBEG1,"CUIGY-EN-BRAY - Eglise",49.4261725916,1.8257133639,0,
20311907,DELPL1,"DELINCOURT - Place",49.2435742461,1.8325718213,0,
20311915,ELGAR1,"ENENCOURT-LEAGE - Gare",49.2951384722,1.8512649782,0,
20311919,ERACI1,"ERAGNY-SUR-EPTE - Cité Saint Charles",49.2988357616,1.7789635846,0,1
20311924,ERNSA1,"ERNEMONT-BOUTAVENT - Salle polyvalente",49.5919433926,1.8005547611,0,
20311931,ESMHE1,"ESCAMES - Hémécourt village",49.5509561991,1.8150870604,0,1
20311945,ESQRD1,"ESQUENNOY - Rd 1001",49.6496631116,2.2707614555,0,1
20311948,ESSMA1,"ESSUILES - Mairie",49.4789990542,2.2933071125,0,1
20311955,FAECO1,"FAY-LES-ETANGS - Rue corneboeuf",49.2475022794,1.9387347615,0,
20312025,FSQCE1,"LE FAY-SAINT-QUENTIN - Centre",49.4506031805,2.2515197106,0,1
20311972,FEUSA1,"FEUQUIÈRES - Rue Saint Lucien",49.6463734244,1.8458142561,0,1
20311969,FEUGA2,"FEUQUIÈRES - Gare",49.6541248617,1.8313159342,0,
20311970,FEUPL1,"FEUQUIÈRES - Place du frayer",49.644116806,1.8413739373,0,
20311984,FLVCE1,"FLAVACOURT - Lincourt le haut",49.3522936076,1.8456435673,0,
20311960,FBECO2,"FONTAINE-BONNELEAU - Ecole primaire",49.6616218493,2.1482348897,0,
20311979,FLGCE1,"FONTAINE-LAVAGANNE - Centre",49.596406954,1.9525331596,0,1
20311980,FLGMA2,"FONTAINE-LAVAGANNE - Mairie",49.5965644941,1.9519430037,0,1
20312022,FSLAN1,"FONTAINE-SAINT-LUCIEN - Ancienne mare",49.4983395421,2.1469666155,0,
20312003,FORCO1,"FORMERIE - Collège Jean Moulin",49.6481215461,1.723185454,0,1
20311994,FMFRE1,"MONTCHEVREUIL - Fresneaux",49.2805444378,2.0035914231,0,
20311983,FLNRD1,"FRESNE-LEGUILLON - Rd 35",49.2557959851,1.9820092578,0,
20312027,GAUGR2,"GAUDECHART - Rue de Grez",49.6163217468,1.9628893268,0,1
20312057,GRCSC1,"GOURCHELLES - Scolaire",49.7309008356,1.7804131105,0,
20312054,GRACO1,"GRANDVILLIERS - Collège Ferdinand Buisson",49.6637733499,1.9446939851,0,1
20312061,GREEC1,"GREMEVILLERS - Ecole",49.5647542424,1.8949112417,0,1
20312069,HALCE1,"HALLOY - Centre",49.6551038607,1.9355537385,0,
20312106,HNNBA1,"HANNACHES - Bazincourt",49.5019965377,1.8098257383,0,
20312107,HNNBE1,"HANNACHES - Bellefontaine",49.5213825363,1.8150042708,0,1
20312105,HNNAB1,"HANNACHES - Abri",49.4973299014,1.8066838276,0,1
20312108,HNNEC1,"HANNACHES - Ecole",49.4964924066,1.8046704601,0,
20312070,HANCE1,"HANVOILE - Centre",49.5124395491,1.879422669,0,
20312081,HDVEG1,"HAUDIVILLERS - Eglise",49.487623802,2.244749902,0,1
20312093,HEPAB1,"HAUTE-EPINE - Abribus",49.5835732709,2.0108123256,0,1
20312094,HEPCE2,"HAUTE-EPINE - Centre",49.583324035,2.010812191,0,1
20312099,HERHE1,"HERICOURT-SUR-THERAIN - Hericourt-sur-Thérain",49.580002082,1.7572247951,0,
20312100,HERHU1,"HERMES - Les hurhauts",49.3540298158,2.2529736781,0,
20311660,AUNFR1,"AUNEUIL - Friancourt",49.3765325524,1.9782335854,0,
20312104,HETMA1,"HETOMESNIL - Mare",49.6269612583,2.0339296222,0,
20312084,HEBPL1,"HODENC-EN-BRAY - La place",49.4832190591,1.91485439,0,
20312082,HEBEG1,"HODENC-EN-BRAY - Rue de l'église",49.4668469866,1.8987217211,0,1
20312111,HODPL1,"HODENC-L'EVEQUE - Place",49.334951563,2.1415413652,0,1
20312134,JUVCE1,"JUVIGNIES - Rue de la Place",49.5182835959,2.086361545,0,
20311826,CAPPO1,"LACHAPELLE-AUX-POTS - Poste",49.4483286774,1.9004353382,0,1
20312138,LALCE1,"LALANDELLE - Centre",49.3999369112,1.875040625,0,1
20312720,LALEC1,"LALANDELLE - Ecole",49.4000920686,1.8756775607,0,
20312143,LANEC1,"LANNOY CUILLERE - Ecole",49.7064900968,1.7458187963,0,
20312146,LANPL1,"LANNOY-CUILLERE - Place",49.7063710913,1.7458158498,0,
20312144,LANFR1,"LANNOY-CUILLERE - Frettencourt",49.6948029855,1.7261215093,0,1
20312193,LTTEC1,"LATTAINVILLE - Ecole",49.2423939671,1.8155134866,0,1
20312203,LVRCE2,"LAVERRIÈRE - Centre",49.6866523772,2.0124830907,0,1
20312148,LAVAB1,"LAVILLETERTRE - Abri",49.1964758747,1.9300234598,0,1
20312149,LAVRO1,"LAVILLETERTRE - Romesnil",49.1872920864,1.9465504221,0,
20312168,LHELH1,"LHERAULE - Mairie",49.4864640733,1.9305724047,0,1
20312173,LIAGA1,"LIANCOURT-SAINT-PIERRE - Gare",49.2208213235,1.9046625772,0,
20312198,LVLBO1,"LIERVILLE - Le boulleaume",49.2008585514,1.8970430694,0,1
20312178,LITCE1,"LITZ - Centre",49.4151853177,2.3316586848,0,1
20312179,LITWA1,"LITZ - Wariville",49.4372650558,2.3309288139,0,
20312180,LOCEC1,"LOCONVILLE - Ecole",49.2563832242,1.9188720629,0,1
20312183,LOUCE1,"LOUEUSE - Centre",49.6004530597,1.8253484441,0,1
20312195,LUCCE1,"LUCHY - Centre",49.5550636934,2.1183718337,0,
20312196,LUCMA1,"LUCHY - Mairie",49.5550435286,2.1183960807,0,
20312209,MAIBO1,"MAISONCELLE-TUILERIE - Bois Gayant",49.5827999177,2.221391502,0,1
20312210,MAIMA1,"MAISONCELLE-TUILERIE - Mairie",49.5872422789,2.2201709071,0,1
20312224,MEBCE2,"MARSEILLE-EN-BEAUVAISIS - Centre",49.573875269,1.9555522101,0,
20312250,MILBE1,"MILLY-SUR-THERAIN - Beaupré",49.5159383452,2.034092831,0,1
20312212,MARAB1,"MARTINCOURT - Abribus R. de la Vallée",49.5227625723,1.8982433512,0,
20312295,MTHEC1,"LE MESNIL-THERIBUS - Ecole",49.3015807641,1.9878200227,0,1
20312294,MTHAB1,"LE MESNIL-THERIBUS - Abribus",49.3031224817,1.9843062132,0,1
20312253,MILCO1,"MILLY-SUR-THERAIN - Courroy",49.5176227661,2.0193624213,0,
20312257,MILFO1,"MILLY-SUR-THERAIN - Les forges",49.4924944339,1.9960920938,0,
20312261,MILMA1,"MILLY-SUR-THERAIN - Mairie",49.5014615918,1.997901112,0,1
20312271,MNNEC1,"MONNEVILLE - Ecole",49.2101433698,1.9775844,0,1
20312244,MEVFE1,"MONTAGNY-EN-VEXIN - Les fermettes",49.1907339212,1.8028634771,0,
20312414,REUCO1,"REUIL-SUR-BRÊCHE - Les couturelles",49.5248494945,2.2074669443,0,
20311946,ESSCO1,"ESSUILES - Coiseaux",49.4941539962,2.2921995473,0,1
20312218,MBRMA2,"MONTREUIL-SUR-BRÊCHE - Mairie - Ecole",49.5081212415,2.2724764432,0,1
20312300,MVLAB2,"MORVILLERS - Abribus",49.5811045207,1.8708139136,0,
20312302,MVLFE1,"MORVILLERS - Ferme de Limermont",49.5690641083,1.8586137908,0,
20312279,MOREC1,"MORVILLERS - Mairie-Ecole",49.5786154271,1.8740057801,0,1
20312282,MORMO1,"MORY-MONTCRUX - Montcrux",49.5951038564,2.4069678772,0,
20312304,NDABO1,"LA DRENNE - Bois de Molle",49.3219437226,2.0938803939,0,1
20312309,NEGPJ1,"LES HAUTS TALICAN - Rue du Point du Jour",49.3317101721,2.0412981311,0,
20312338,NSPMA1,"LA NEUVILLE-SAINT-PIERRE - Mairie",49.5292996332,2.2029916282,0,1
20312342,OFFCE1,"OFFOY - Centre",49.6966163713,2.0378407594,0,1
20312346,ONSEC1,"ONS-EN-BRAY - Ecole",49.4163744918,1.9227524936,0,1
20312351,ONSVA1,"ONS-EN-BRAY - Rue de la vallée",49.4196405334,1.9177680971,0,
20312345,ONSCH1,"ONS-EN-BRAY - Chêne Notre Dame",49.4177852016,1.936131741,0,
20312358,OUDGR1,"OUDEUIL - Grand oudeuil",49.5521097411,2.0381960206,0,1
20312357,OUDEG1,"OUDEUIL - Eglise",49.5471003143,2.0284399767,0,
20312366,PAICE1,"PAILLART - Centre",49.666510514,2.3246965344,0,1
20312370,PARCH1,"PARNES - Chaudry",49.1956725201,1.7525938936,0,1
20312369,PARCE1,"PARNES - Centre",49.2042159714,1.739118738,0,1
20312387,PLACE1,"PLAINVILLE - Ecole",49.6133502998,2.4524632204,0,1
20312371,PCH351,"PONCHON - 353 rue de Pierrepont",49.3574610192,2.1824273959,0,
20312374,PCHHO1,"PONCHON - Houssoye-RD1001",49.3453952688,2.1888299033,0,
20312397,PRECE1,"PREVILLERS - Centre-Scolaire",49.6085425739,1.9957860202,0,
20312382,PEBMO1,"PUISEUX-EN-BRAY - Le Mont Marlet",49.4126520336,1.7736474749,0,1
20312504,SGFSO1,"SAINT-GERMER-DE-FLY - Soumarqué",49.4200003568,1.8063024141,0,1
20312708,REIEC1,"REILLY - Ecole",49.2434695726,1.8468788161,0,
20312417,ROCCE1,"ROCQUENCOURT - Centre",49.6481652282,2.41898798,0,
20312423,ROTCE1,"ROTHOIS - Centre",49.5986235169,1.9952624669,0,1
20312428,ROYME1,"ROY-BOISSY - Le Mesnil Valéran",49.5768931774,1.9036537552,0,
20312377,PCHRP1,"PONCHON - Roye - Rue des petits Prés",49.3534983288,2.1816649412,0,1
20312436,SAFFA1,"SAINT-ANDRE-FARIVILLERS - Farivillers",49.5827043964,2.3250737045,0,
20312583,STAMA1,"SAINT-ARNOULT - Mairie",49.6318908084,1.8208453072,0,
20312458,SEBEC1,"SAINT-AUBIN-EN-BRAY - Ecole",49.4210829583,1.877922484,0,1
20312479,SEUSC1,"SAINTE-EUSOYE - Scolaire Noirveaux",49.5785566592,2.2692241137,0,
20312477,SEUPL1,"SAINTE-EUSOYE - Place",49.5776109623,2.2420334975,0,1
20312494,SGFCH1,"SAINT-GERMER-DE-FLY - Chemin Bourdon Carimarot",49.4480935592,1.7850866184,0,
20312493,SGFCE1,"SAINT-GERMER-DE-FLY - Centre",49.4430425479,1.7810934047,0,
20312448,SBRD91,"SAINT-LEGER-EN-BRAY - D981",49.3948479265,2.0175375322,0,
20312525,SOCEP1,"SAINT-OMER-EN-CHAUSSEE - Ecole primaire",49.5320765231,2.0049861527,0,1
20312527,SOCLO1,"SAINT-OMER-EN-CHAUSSEE - Lotissement",49.5317329533,2.0049823468,0,
20312552,SPCCA1,"SAINT-PIERRE-ES-CHAMPS - Le catelet",49.4203081949,1.7249261636,0,
20312556,SPCMF1,"SAINT-PIERRE-ES-CHAMPS - Le mont de Fly",49.4254298209,1.7574089356,0,
20312550,SPCBI1,"SAINT-PIERRE-ES-CHAMPS - Les binaux",49.4152797675,1.7501694358,0,
20312551,SPCBO1,"SAINT-PIERRE-ES-CHAMPS - Les boulards",49.4146871532,1.7365589932,0,1
20312554,SPCFR1,"SAINT-PIERRE-ES-CHAMPS - Les frères Jean",49.4163150666,1.7396620723,0,
20312557,SPCMO1,"SAINT-PIERRE-ES-CHAMPS - Montel",49.4231715496,1.7253644829,0,
20312555,SPCMA1,"SAINT-PIERRE-ES-CHAMPS - Mairie",49.4316365495,1.7272726128,0,1
20312575,SSUBO1,"SAINT-SULPICE - Le Bout de Brie",49.3596791547,2.115849954,0,
20312580,SSUGR1,"SAINT-SULPICE - La grosse Saulx",49.3375034521,2.1111106721,0,1
20312582,SSUVA1,"SAINT-SULPICE - Le val de l'eau",49.3646620064,2.1241699642,0,
20312579,SSUGO1,"SAINT-SULPICE - Les godins",49.3662436107,2.1322309084,0,1
20312576,SSUCA1,"SAINT-SULPICE - La Vallée 1",49.3504780639,2.1221738934,0,
20312709,SSULV1,"SAINT-SULPICE - La Vallée 2",49.350037481,2.1219557228,0,
20312587,STHHA1,"SAINT-THIBAULT - Haleine",49.6845565344,1.8550816386,0,1
20312585,STHCA1,"SAINT-THIBAULT - Les calais",49.6883981484,1.8266319333,0,
20312442,SAIRD1,"SAINT-VALERY - RD 67",49.7287779198,1.7395779316,0,1
20312567,SRCME1,"SARCUS - Mairie",49.6856437907,1.8672321476,0,1
20312515,SNTBO1,"SENANTES - Bois Aubert",49.5020334998,1.8348028119,0,1
20312519,SNTCO1,"SENANTES - Corbeauval",49.4812048571,1.8218695433,0,
20312521,SNTGO1,"SENANTES - Goulancourt",49.4747379463,1.8283393478,0,
20312523,SNTMO1,"SENANTES - Montperthuis",49.4981113554,1.8570835983,0,1
20312518,SNTCE1,"SENANTES - Centre",49.4862985741,1.834797795,0,1
20312463,SENMA1,"SENOTS - Mairie - Ecole",49.2645306939,1.9934729244,0,
20312570,SRSCE1,"SERANS - Centre",49.1858252764,1.8349520613,0,
20312470,SERVI1,"SERIFONTAINE - La vigne",49.3483507801,1.774143572,0,1
20312188,LSOEC1,"LALANDE-EN-SON - Mairie-Ecole",49.3919189517,1.7804683597,0,
20312471,SETEC1,"SERIFONTAINE - Ecole Jules Ferry",49.3528490621,1.7716824697,0,
20312472,SETEC2,"SERIFONTAINE - Ecole Jules Ferry Arrivée",49.3528647222,1.7716694047,0,
20312473,SETEC3,"SERIFONTAINE - Ecole Jules Ferry Départ",49.3528870995,1.7716519681,0,
20312507,SILEC1,"SILLY-TILLARD - Ecole",49.3249949124,2.1646997688,0,1
20312538,SONHA2,"SONGEONS - La halle",49.5494897709,1.8539006033,0,
20312591,TALMA1,"TALMONTIERS - Mairie",49.3884443751,1.7360474292,0,1
20312605,THREG1,"THERINES - Rue de la Mairie",49.6034158839,1.8926503731,0,
20312593,TBVCE1,"THIBIVILLERS - Centre",49.3002630155,1.8983116821,0,
20312594,TCHBO1,"TRIE-CHÂTEAU - Bois de villers",49.2936595189,1.8213762144,0,
20312598,TCHPO2,"TRIE-CHÂTEAU - Centre",49.285192981,1.8211040829,0,1
20312599,TCHSA1,"TRIE-CHÂTEAU - Sainte-Marguerite",49.2886351555,1.8192985905,0,1
20312629,TSSCE2,"TROUSSENCOURT - Centre",49.605631539,2.2592801464,0,1
20312662,VMNFO2,"LE VAUMAIN - La fonderie centre",49.3451933248,1.8807420084,0,1
20312663,VMNGR1,"LE VAUMAIN - Les maisonnettes - Rue Gras",49.346307877,1.8533099004,0,1
20312670,VRXEC1,"LE VAUROUX - Ecole",49.378253628,1.9251809698,0,1
20312667,VRXAN1,"LE VAUROUX - Rue Anceau",49.3791883931,1.9240151316,0,1
20312167,LGLCE2,"LE GALLET - Centre",49.6265597392,2.1086683287,0,
20312639,VBALA1,"VILLEMBRAY - Lanlu",49.4909042927,1.8705756776,0,1
20312684,VSSHE1,"VILLERS-SAINT-SEPULCRE - Hez",49.3708434066,2.2024500986,0,
20312501,SGFOR1,"SAINT-GERMER-DE-FLY - Orsimont - Rue Michel Greuet",49.4534178034,1.7884584992,0,1
20312672,VSACE1,"VILLERS-SUR-AUCHY - Centre",49.4877157859,1.7954167662,0,1
20312641,VBNEG1,"VILLERS-SUR-BONNIÈRES - Eglise",49.538001623,1.9661823656,0,1
20312686,VVCCA1,"VILLERS-VICOMTE - Carrefour",49.6435749615,2.2389888316,0,1
20312658,VILPL1,"LES HAUTS TALICAN - Place des Tilleuls",49.3438729035,2.0188611852,0,
20312665,VROCE1,"VROCOURT - Centre",49.5293828715,1.8862000563,0,
20312690,WAMEC1,"WAMBEZ - Ecole",49.5264928786,1.852583636,0,1
20312689,WAMCO2,"WAMBEZ - Les coutumes",49.5197904458,1.8651694646,0,1
20312688,WAMCA1,"WAMBEZ - Carrefour",49.5278740488,1.8526274722,0,1
20312699,WAVMA1,"WAVIGNIES - Grande rue",49.5493042103,2.3638189067,0,
20312697,WAVAG2,"WAVIGNIES - Agora",49.5425601859,2.3572979368,0,
20312698,WAVEG1,"WAVIGNIES - Eglise",49.5465229946,2.3595089571,0,1
20312700,WAVSC1,"WAVIGNIES - Scolaire",49.5425040164,2.3574989165,0,1
20312028,GEBCO1,"GOURNAY-EN-BRAY - Collège Rollon",49.4808341069,1.7195038447,0,1
20311661,AUNGR1,"AUNEUIL - Grumesnil",49.3679870303,2.0266453054,0,
20311779,BOTPO1,"BOUTENCOURT - Pommereux",49.3247802677,1.8885850592,0,1
20311657,ASLBO1,"ABBEVILLE-SAINT-LUCIEN - Le bois Saint Martin",49.5190565031,2.177791797,0,
20311631,ALLBO2,"ALLONNE - Bongenoult école",49.3995738551,2.0971011256,0,1
20311676,AVLCE1,"BORNEL - Anserville",49.2259561278,2.2077499598,0,1
20311677,AVLEC1,"BORNEL - Anserville Ecole",49.2258444037,2.2082912365,0,
20311744,BFOGR1,"BLANCFOSSE - Grande rue",49.658108741,2.1945485656,0,
20311690,BCTEC1,"BLICOURT - Ecole",49.5566092624,2.0577560865,0,1
20311691,BCTEG1,"BLICOURT - Eglise",49.5565951549,2.0574817577,0,1
20311757,BLIEC2,"BLICOURT - Ecole correspondance",49.556676724,2.0577988633,0,1
20311693,BCTRE1,"BLICOURT - Regnonval",49.5714771025,2.0581935484,0,
20311751,BLEBA1,"BONNEUIL-LES-EAUX - Rue d'en bas",49.6759373138,2.2396279337,0,1
20311771,BONSP1,"BONVILLERS - Des puits revel",49.5886428866,2.3531990889,0,1
20311776,BORME1,"BORNEL - Ménillet",49.189155348,2.1944403051,0,
20311777,BOTCE1,"BOUTENCOURT - Centre",49.3208330768,1.8580516802,0,
20311795,BTLCO1,"BRETEUIL - Compere Morel",49.635248003,2.3001910467,0,1
20311837,CEMMA1,"CEMPUIS - Mairie",49.6583319949,1.9874929817,0,1
20311854,CHACE1,"CHAVENÇON - Centre",49.1869434632,1.9933318618,0,1
20311857,CHXCE1,"CHEPOIX - Centre",49.6057323178,2.3856584527,0,
20311859,CHXPE1,"CHEPOIX - Petit chepoix",49.6022118137,2.3906981272,0,
20311861,CHXWA2,"CHEPOIX - Warmaise",49.5981651699,2.3660456439,0,1
20311876,CONVI1,"CONTEVILLE - Rue de la ville",49.6506943307,2.0490297495,0,
20311913,ELECO1,"ENENCOURT-LEAGE - Ecole",49.3036029278,1.8460921402,0,1
20311914,ELEGL1,"ENENCOURT-LEAGE - Eglise",49.3037117041,1.8463289541,0,
20311947,ESSHA1,"ESSUILES - Hatton",49.4772230542,2.3008292723,0,
20311985,FLVEC1,"FLAVACOURT - Ecole",49.3349440948,1.8194897584,0,1
20311989,FLVTR1,"FLAVACOURT - La tremblée",49.3375031752,1.8297224647,0,
20311974,FLECA1,"FLECHY - Carrefour",49.659720451,2.2288810916,0,1
20312016,FRCMA2,"FRANCASTEL - Mairie-école",49.5897931534,2.1477122793,0,
20311981,FLNCE1,"FRESNE-LEGUILLON - Centre RD 923",49.2533891633,1.9815875259,0,1
20311982,FLNHE1,"FRESNE-LEGUILLON - Heulecourt centre",49.2423420958,1.9913483999,0,1
20312045,GLYCE1,"GLATIGNY - Eglise",49.4966248186,1.8946828598,0,
20312062,GREFC1,"GREMEVILLERS - Frétoy centre",49.5536034765,1.904230051,0,1
20312059,GRECE2,"GREMEVILLERS - Centre",49.564166607,1.896322231,0,
20312033,GGCRO1,"GUIGNECOURT - Route de fontaine Saint Lucien",49.4873464475,2.1379591812,0,
20312170,LHMRI1,"LE HAMEL - Rieux",49.6443748545,2.0197355948,0,
20312115,HRDPR1,"HARDIVILLERS - Rue du Presbytère",49.6156112063,2.2219710331,0,1
20312078,HCHPL1,"HERCHIES - Le Plouy Louvet",49.4756178437,1.998949414,0,
20312121,HSSMA2,"LA HOUSSOYE - Mairie",49.354393033,1.9431344336,0,
20312123,HSSRD1,"LA HOUSSOYE - Rd981",49.3547228391,1.941662116,0,1
20312158,LBSCR2,"LABOISSIÈRE-EN-THELLE - Crevecoeur lotissement",49.2813844842,2.1425005543,0,
20312163,LBSPA1,"LABOISSIÈRE-EN-THELLE - Parfondeval - Ecole",49.2873807185,2.1393584513,0,
20312156,LBOPH1,"LABOSSE - Les plards haut",49.3600741785,1.9099569805,0,
20312201,LVQCE2,"LAVACQUERIE - Eglise",49.6811008007,2.0919323261,0,1
20312202,LVQEC1,"LAVACQUERIE - Ecole",49.680606899,2.091945082,0,1
20312290,MSFBA1,"LE MESNIL-SAINT-FIRMIN - Rue d'en bas",49.6279397849,2.4091945905,0,1
20312251,MILBU1,"MILLY-SUR-THERAIN - Bury",49.5001865141,2.0334431092,0,
20312208,MABGR1,"MONCEAUX-L'ABBAYE - Grand chemin",49.6508731511,1.7903846368,0,
20312249,MHLCE1,"SAINT-CREPIN-IBOUVILLERS - Montherlant",49.2780162559,2.0490497962,0,1
20312278,MONCE1,"MONTS - Centre",49.21652329,2.015834153,0,1
20312299,MURCE1,"MUREAUMONT - Centre",49.6294321462,1.7769251751,0,1
20312310,NEGTI1,"LES HAUTS TALICAN - Rue Titon",49.3348620179,2.0389000224,0,
20312329,NOUMA1,"NOURARD-LE-FRANC - Mairie",49.4991264156,2.3733250418,0,
20312361,OUDSA1,"OUDEUIL - Ribeauvillé rue des saules",49.556312715,2.0255721181,0,1
20312386,PISEG2,"PISSELEU - Eglise",49.5391615289,2.0574787798,0,
20312391,POUFO1,"POUILLY - Fourche",49.2733339485,2.0347207545,0,1
20312392,POUMO2,"POUILLY - Montoiselle",49.2718051381,2.0368107218,0,
20312398,PREOV1,"PREVILLERS - Ovillers",49.6237904204,2.0087908159,0,
20312388,PLHBO1,"PUISEUX-LE-HAUBERGER - Bout-Sec",49.2109258447,2.234274289,0,1
20312421,ROMMA1,"ROMESCAMPS - Mairie",49.711283164,1.8048454173,0,1
20312432,RTGCE1,"ROTANGY - Centre",49.5822266155,2.0830319618,0,1
20312435,SAFBR1,"SAINT-ANDRE-FARIVILLERS - Bois Renault",49.5749745011,2.3052578216,0,1
20312440,SAFMO1,"SAINT-ANDRE-FARIVILLERS - Le Moulin",49.5825609738,2.3122858768,0,1
20312617,TLLRI1,"TILLE - Rieux",49.4696827851,2.1065713746,0,
20312621,TRICE1,"TRIE-LA-VILLE - Centre",49.2897122105,1.8333130026,0,1
20312659,VMNCE1,"LE VAUMAIN - Eglise",49.3344936977,1.8719505105,0,
20312664,VMNMA1,"LE VAUMAIN - Les maisonnettes - Grande rue",49.3473166068,1.8539458071,0,
20312677,VSQSA1,"VERDEREL-LÈS-SAUQUEUSE - Sauqueuse Rue de l'Eglise",49.517892903,2.065621836,0,
20312678,VSQSM1,"VERDEREL-LES-SAUQUEUSE - Sauqueuse Rue St Lucien",49.5192016087,2.0664314685,0,
20312674,VSBAL1,"VILLENEUVE-LES-SABLONS - Allée du bois",49.2410035865,2.0686409906,0,1
20312642,VBTGR1,"VILLERS-SAINT-BARTHELEMY - Grand bailly",49.4001488197,1.970548555,0,1
20312644,VBTMA1,"VILLERS-SAINT-BARTHELEMY - Mairie Ecole",49.3984166073,1.9481375279,0,1
20312673,VSAOR2,"VILLERS-SUR-AUCHY - Orsimont",49.4736039261,1.7988639904,0,1
20312685,VSTCE1,"TRIE-CHÂTEAU - Villers Sur Trie",49.3085881319,1.8248820971,0,1
20312693,WAREP1,"WARLUIS - L'épine",49.3759605827,2.1615773314,0,
20312694,WARME1,"WARLUIS - Merlemont",49.3898753854,2.1775474009,0,1
20312526,SOCGA1,"SAINT-OMER-EN-CHAUSSEE - Gare",49.5314373821,1.9980136246,0,
20312305,NDACE1,"LA DRENNE - La Neuville d'Aumont",49.3111308193,2.1024774031,0,1
20312584,STAMQ1,"SAINT-ARNOULT - Marcoquet",49.6423634927,1.8054649688,0,
20312246,MFLFO1,"MORTEFONTAINE-EN-THELLE - La fourche",49.2687758084,2.1848799039,0,1
20312457,SEBCO1,"SAINT-AUBIN-EN-BRAY - Collège Les Fontainettes",49.4343364258,1.8938742944,0,1
20311916,ENECE1,"LA CORNE EN VEXIN - Enencourt Mairie",49.2972637951,1.9234116822,0,1
20311933,ESMLO1,"ESCAMES - Longavesnes centre",49.5780832985,1.815074069,0,
20312076,HARFA1,"HARDIVILLERS-EN-VEXIN - Fayel-Bocage",49.3131357348,1.9291642605,0,
20312225,MEBCO1,"MARSEILLE-EN-BEAUVAISIS - Collège Philéas Lebègue",49.571343281,1.9508642767,0,1
20312403,QCFCE1,"QUINCAMPOIX-FLEUZY - Centre",49.747150728,1.7712776481,0,1
20311685,BCH391,"MONTCHEVREUIL - Rue du Moulin",49.2924212953,1.9588175623,0,
20311689,BCHMA1,"MONTCHEVREUIL - Bachivillers Ecole",49.2891023558,1.9626207836,0,
20311760,BLNEC1,"LES HAUTS TALICAN  - Beaumont Ecole",49.3290519137,2.0038845928,0,1
20311762,BLNLO1,"LES HAUTS TALICAN - La Longue Rue Centre",49.3112009059,2.0230123458,0,
20311749,BLASE1,"BLARGIES - Secqueville",49.6587978697,1.7559659035,0,
20311683,BBSFA1,"BOUBIERS - Le fayel",49.2051543706,1.8642720444,0,1
20311808,BVLEG1,"BOUCONVILLERS - Eglise",49.1759795703,1.9027177947,0,1
20311815,BVTCE1,"FORMERIE - Boutavent",49.6411125893,1.7574854662,0,
20311812,BVSBE1,"BOUVRESSE - Bel air",49.6505244247,1.74766308,0,
20311897,CVGCA1,"CAUVIGNY - Cailleret",49.297402989,2.2406732857,0,1
20311874,CONLE2,"CONTEVILLE - Rue léger",49.6502982947,2.0486602529,0,
20311875,CONSC2,"CONTEVILLE - Scolaire",49.6496177536,2.0485577698,0,
20312164,LCRMA1,"LE CROCQ - Mairie - Ecole",49.6261125191,2.1802717631,0,1
20311903,DAMCE1,"DAMERAUCOURT - Centre",49.7080513839,1.9269438149,0,1
20311912,ELEAB1,"ELENCOURT - Abri",49.6982623015,1.8930597888,0,1
20311917,EPRCE1,"ESCLES-SAINT-PIERRE - Centre",49.7408289369,1.8040134975,0,
20311988,FLVPE1,"FLAVACOURT - Les petits bus",49.3477743673,1.8330525883,0,
20311986,FLVLI1,"FLAVACOURT - Lincourt centre",49.3475034294,1.839722549,0,
20311999,FONCE2,"FONTENAY-TORCY - Centre",49.568215417,1.7689537661,0,
20312055,GRALY2,"GRANDVILLIERS - Lycée Jules Verne",49.6625832065,1.9474131421,0,1
20312065,HADDA1,"HADANCOURT-LE-HAUT-CLOCHER - Damval",49.1954833226,1.8516508707,0,1
20312067,HADME1,"HADANCOURT-LE-HAUT-CLOCHER - Mesnil lance levée",49.2022253403,1.8409349825,0,
20312068,HADRD1,"HADANCOURT-LE-HAUT-CLOCHER - RD153",49.1866634763,1.8536119471,0,
20312075,HARCE1,"LA CORNE EN VEXIN - Hardivillers en Vexin",49.3041835676,1.9379646758,0,1
20312118,HRLMA1,"LA HERELLE - Mairie",49.5911136898,2.4147174335,0,1
20312127,JAMCE1,"JAMERICOURT - Centre",49.304108155,1.8790452556,0,1
20312129,JOUCH2,"JOUY-SOUS-THELLE - Chair à loup",49.3131907291,1.9568928423,0,
20312132,JOUJO1,"JOUY-SOUS-THELLE - Jouy le bois",49.3163449383,1.9621705069,0,
20312150,LBOBO1,"LABOSSE - Le bohon",49.3261757114,1.8924007957,0,1
20312153,LBOMO1,"LABOSSE - Le montcornet",49.3551006167,1.8941133518,0,
20312154,LBOPL1,"LABOSSE - Les plards centre",49.3580717942,1.9083292664,0,1
20312142,LALVS1,"LALANDELLE - La petite Landelle - Rue de la vallée surelle",49.3910033502,1.8768723468,0,
20312147,LANRO1,"LANNOY-CUILLERE - Rothois centre",49.7212238648,1.7530600624,0,1
20312171,LIACE1,"LIANCOURT-SAINT-PIERRE - Centre",49.2333435315,1.9064849891,0,1
20312199,LVLCE1,"LIERVILLE - Centre",49.1904232327,1.8810023986,0,
20312177,LIHPE1,"LIHUS - Le petit lihus",49.6116732611,2.007376888,0,
20312298,MTHMO1,"LE MESNIL-THERIBUS - Le Moulin vert",49.2986515964,1.9947094647,0,
20312252,MILCA1,"MILLY-SUR-THERAIN - Cardonette",49.5066634597,2.0391615713,0,1
20312274,MOLNE1,"MOLIENS - La neuville",49.6778023431,1.8143152405,0,
20312207,MABEG1,"MONCEAUX-L'ABBAYE - L'egouchet",49.6607329932,1.787145321,0,1
20312263,MJVBE1,"MONTJAVOULT - Beaugrenier",49.221264991,1.8069822594,0,1
20312265,MJVHE1,"MONTJAVOULT - Herouval",49.2314332944,1.7874719991,0,
20312264,MJVBO1,"MONTJAVOULT - Le bout du bois",49.2071834112,1.8161924858,0,
20312267,MJVMR1,"MONTJAVOULT - Le marais",49.2168740662,1.7793328788,0,
20312269,MJVVO1,"MONTJAVOULT - Le vouast",49.2157965084,1.7931637162,0,
20312266,MJVMA1,"MONTJAVOULT - Mairie - Ecole",49.214884076,1.782272351,0,
20312268,MJVVA1,"MONTJAVOULT - Valecourt",49.1975850818,1.7782427391,0,1
20312308,NEGMA1,"LES HAUTS TALICAN - Malassise",49.3269447634,2.0652708549,0,1
20312325,NOACO1,"NOAILLES - Collège Anna De Noailles",49.3279237358,2.1957597867,0,1
20312356,OROHE2,"OROËR - Henu",49.4877718294,2.1745249674,0,
20312478,SEUSA1,"SAINTE-EUSOYE - Sauveleux",49.5712590281,2.2513052512,0,1
20312581,SSUHA1,"SAINT-SULPICE - La haute ville",49.3396253957,2.1295471428,0,
20312520,SNTFR1,"SENANTES - Le bray la fourche",49.471592215,1.8184238113,0,
20312465,SERDR1,"SERIFONTAINE - Droitecourt",49.3296327014,1.7755214577,0,1
20312532,SOMPL2,"SOMMEREUX - Place",49.6795928661,1.9918935913,0,1
20312646,VDCCE1,"VAUDANCOURT - Centre",49.2336148369,1.7561126079,0,
20312669,VRXCO1,"LE VAUROUX - La côte d'or",49.382317446,1.9113008163,0,
20312254,MILCV1,"MILLY-SUR-THERAIN - Campdeville",49.4868297589,2.0272239252,0,1
20311702,BEABO1,"BEAUVAIS - Boulevard A. d'Inville",49.4335543382,2.0787610032,0,
20311726,BEAPE2,"BEAUVAIS - Pellerin université",49.4297837895,2.0905407986,0,
20311700,BEAAM1,"BEAUVAIS - Rue d'Amiens-bas",49.4361965628,2.0868141589,0,
20311707,BEACA1,"BEAUVAIS - Rue de Calais",49.4367875276,2.0848277726,0,1
20311712,BEAFR5,"BEAUVAIS - Franc marché",49.4364017463,2.0850560858,0,
20311734,BEBRO1,"BERNEUIL-EN-BRAY - Route de noailles",49.347623133,2.0624112508,0,
20311735,BEBVA1,"BERNEUIL-EN-BRAY - Vaux centre",49.3567737915,2.0419513163,0,
20311925,ESCCE1,"ESCHES - Eglise",49.2158057397,2.1680307615,0,1
20312006,FOSBO1,"BORNEL - Bout d'en haut",49.2148957517,2.179350252,0,1
20312007,FOSCE1,"BORNEL - Fosseuse",49.2105240365,2.1894003889,0,1
20312012,FQNLO2,"FOUQUENIES - Lotissement",49.461775467,2.0499006674,0,
20311967,FETEG1,"FRESNOY-EN-THELLE - Eglise",49.2013244196,2.2706300292,0,1
20311892,CSPCE2,"LACHAPELLE-SAINT-PIERRE - Centre",49.2688526867,2.2365266046,0,1
20312181,LORCE1,"LORMAISON - Square J.Tabary",49.2565750147,2.1107406684,0,
20312482,SGE152,"SAINTE-GENEVIÈVE - 151 RD 1001",49.2894424746,2.2006076282,0,
20312624,TRSAB1,"TROISSEREUX - Abribus",49.4797733532,2.0449117216,0,1
20312638,VBACE1,"VILLEMBRAY - Centre",49.4752665884,1.8690364229,0,1
20311670,AUNZ1,"AUNEUIL - Z.I. de Sinancourt",49.3830551909,1.9994427522,0,
20312229,MERCO1,"MERU - Collège Du Thelle",49.2313121156,2.1249869998,0,1
20311717,BEAIN1,"BEAUVAIS - Institution du St Esprit",49.4174159871,2.0837562066,0,1
20312204,LVSEG1,"LAVERSINES - Centre",49.426693278,2.1945051118,0,1
20312239,MERMF1,"MERU - Collège Pierre Mendes-France",49.2302255503,2.1397917014,0,
20312037,GISFO2,"GISORS - Forcinal",49.2849544801,1.7905417674,0,
20311825,CAPHE1,"LACHAPELLE-AUX-POTS - Hericourt",49.4480052493,1.9226791948,0,1
20311747,BLAD31,"BLARGIES - D316",49.6720623997,1.7610948506,0,
20312272,MOLEG1,"MOLIENS - Eglise-Scolaire",49.6665131703,1.8100845586,0,
20312275,MOLPA1,"MOLIENS - Rue Patis Manon",49.6661131775,1.8100048086,0,
20311636,ALMMA1,"AUCHY-LA-MONTAGNE - Mairie",49.5750885885,2.1186149635,0,
20311729,BEARD2,"BEAUVAIS - Plouy Saint Lucien RD 149",49.4711144784,2.0784112163,0,1
20312017,FRCRD1,"FRANCASTEL - RD 569",49.5892231227,2.143641454,0,
20311821,CAPAR2,"LACHAPELLE-AUX-POTS - Armentieres sables rouges",49.4551932574,1.9232126855,0,
20312655,VIEMA1,"VIEFVILLERS - Mairie",49.6145092514,2.1284647029,0,1
20312522,SNTGR1,"SENANTES - Groscourt",49.507344052,1.8539934515,0,
20312524,SOCBE1,"SAINT-OMER-EN-CHAUSSEE - Belloy",49.5318536013,1.9903924276,0,
20311752,BLEMA1,"BONNEUIL-LES-EAUX - Mare",49.6774212742,2.2240715426,0,1
20311926,ESCFO1,"ESCHES - Liecourt Fourche",49.2377945655,2.1788992372,0,
20312280,MOREG1,"MORY-MONTCRUX - Eglise",49.5918121497,2.3942284693,0,
20312652,VENMA1,"VENDEUIL-CAPLY - Mairie-Ecole",49.6114919633,2.2900902042,0,1
20312718,RYCEG1,"ROYAUCOURT - Eglise",49.6090531864,2.5284155878,0,
20312038,GISGA1,"GISORS - Gare",49.2850038382,1.784638242,0,1
20311743,BFOFE1,"BLANCFOSSE - Ferme de la haie",49.6494510808,2.1747719113,0,1
20312590,TALLA1,"TALMONTIERS - Val d'un oeuf",49.3839468068,1.7421022586,0,
20312437,SAFHA1,"SAINT-ANDRE-FARIVILLERS - Hedencourt Haies Villert",49.5911992249,2.2853942793,0,
20311883,CRCEC1,"COURCELLES-LÈS-GISORS - Ecole",49.2605238875,1.7419224795,0,
20312296,MTHLA1,"LE MESNIL-THERIBUS - Les Landes Croix Blanche",49.3182874904,2.0072921645,0,
20311692,BCTPE1,"BLICOURT - Petit",49.5614626158,2.0533722968,0,
20312484,SGECR1,"SAINTE-GENEVIÈVE - La croix-Rue de Novillers",49.2791155213,2.2048302,0,1
20312489,SGENO2,"SAINTE-GENEVIÈVE - Rue de Novillers",49.2791448406,2.2049399806,0,
20311905,DARRE1,"DARGIES - Réderie",49.6959826318,1.9469137485,0,
20311799,BTLRD1,"BRETEUIL - RD 1001 nord AB",49.6301018518,2.2932401146,0,1
20312373,PCHBL1,"PONCHON - Blainville",49.3397833737,2.1948936259,0,
20312389,PLHCH1,"PUISEUX-LE-HAUBERGER - Château",49.2167045921,2.2361700223,0,1
20312544,SPABE2,"SAINT-PAUL - Le Becquet-RN31",49.4189044071,1.9938114899,0,1
20311706,BEACO2,"BEAUVAIS - Collège Georges Sand",49.4499636415,2.0851710337,0,
20311890,CSPBE1,"LACHAPELLE-SAINT-PIERRE - Les beauchamps",49.2717941654,2.2329098413,0,1
20311613,ABAHE1,"ABANCOURT - Hennicourt Ecole primaire",49.6856706738,1.7779128779,0,1
20311615,ABASO1,"ABANCOURT - Hénnicourt rue Soyer",49.6897111503,1.7695351315,0,
20311937,ESPCL1,"ESPAUBOURG - Les clos",49.4321268952,1.86958542,0,1
20311973,FEUTE1,"FEUQUIÈRES - Dassault",49.6449935403,1.8405442218,0,
20312002,FORCA2,"FORMERIE - Caserne",49.6491524881,1.7339749394,0,
20312405,QCFSA1,"QUINCAMPOIX-FLEUZY - Salle des fêtes",49.7513823984,1.7635956727,0,
20311641,AMLCO1,"AUMALE - Collège Saint Joseph",49.7680406251,1.7505454285,0,1
20311645,AMSCA1,"AMIENS - Campus",49.8743936414,2.2646782866,0,
20312712,AYECE1,"AYENCOURT - Eglise",49.6269530509,2.5559255002,0,
20312716,GODMA1,"GODENVILLERS - Mairie - Ecole",49.5884140012,2.5525960422,0,
20312441,SAIPE1,"SAINT-VALERY - Petit beauvais",49.7261025462,1.7360958913,0,1
20311801,BUCFR1,"BUCAMPS - Fresneaux",49.5274936603,2.2935897194,0,
20311818,CANMO2,"CANNY-SUR-THERAIN - 50 Rue de Moimont",49.622504201,1.7243541337,0,1
20312450,SCIEC1,"SAINT-CREPIN-IBOUVILLIERS - Ecole",49.2630761953,2.0727907797,0,
20312350,ONSTR1,"ONS-EN-BRAY - Trou marot",49.4140316025,1.9298294074,0,
20312468,SERSA1,"SERIFONTAINE - Sainte Marie",49.3474733118,1.7733324543,0,
20311648,AMSGA1,"AMIENS - Gare routière",49.8910647003,2.3085642484,0,1
20311620,ABBMA1,"ABBECOURT - Mattencourt",49.3660440249,2.1622912976,0,1
20311976,FLEGR1,"FLEURY - Grande rue",49.2460900466,1.9684344273,0,1
20312657,VILME1,"LES HAUTS TALICAN - Place de Mésenguy",49.3495732552,2.0105812872,0,1
20312122,HSSPO1,"LA HOUSSOYE - Rue de Porcheux",49.3517531833,1.9401216121,0,1
20312029,GEBPL1,"GOURNAY-EN-BRAY - Place d'armes",49.4836821152,1.722684504,0,1
20312691,WARBR1,"WARLUIS - Briquebourg",49.3817731415,2.1484807505,0,1
20312227,MERCA2,"MERU - Caserne des pompiers",49.2191980929,2.1298084185,0,
20311738,BERJF1,"BERTHECOURT - Rue Jules Ferry",49.3507555092,2.2280499226,0,1
20311756,BLGH21,"BLACOURT - La Haute rue passage à niveau",49.4490366001,1.8741060613,0,
20312141,LALTJ1,"LALANDELLE - La petite Landelle - Trou Jumel",49.3928824556,1.8904125713,0,
20312385,PISEC1,"PISSELEU - Ecole",49.5391538986,2.0600123289,0,1
20311807,BVERD1,"BOURY-EN-VEXIN - RD6/Rte de Montbines",49.2418981203,1.7332389451,0,
20312063,GREFR1,"GREMEVILLERS - Frétoy rue Bourbon",49.5590546635,1.9015233735,0,1
20312713,DFTRO1,"DOMFRONT - Rue de Godenvillers",49.6030448852,2.5536621939,0,
20311740,BEZPL1,"BEZU-SAINT-ÉLOI - Place de la libération",49.2934349868,1.6967534814,0,
20311741,BEZPO1,"BEZU-SAINT-ÉLOI - Poste",49.2947132543,1.704432629,0,
20312040,GISHO1,"GISORS - Hôpital",49.2794428995,1.7608121593,0,1
20312035,GISCH1,"GISORS - Château",49.2801145078,1.7726421462,0,1
20312043,GISRE1,"GISORS - Les remparts",49.2830535963,1.779152116,0,
20311847,CEVHO1,"CHAUMONT-EN-VEXIN - Rue hôtel de ville",49.2622442157,1.8814790504,0,
20311843,CEVCO1,"CHAUMONT-EN-VEXIN - Collège Saint Exupéry",49.2621230302,1.8750418392,0,1
20311840,CERSA1,"CERGY - Saint-Christophe RER",49.049854464,2.0343027492,0,
20311842,CERVE1,"CERGY - Le verger",49.0504642478,2.0437024674,0,
20311742,BEZRI1,"BEZU-SAINT-ÉLOI - Les Ricquets",49.2887379576,1.7163440284,0,
20311953,ETRCI1,"ETREPAGNY - Cimetière",49.3043112992,1.6239305404,0,
20311954,ETRMA1,"ETREPAGNY - Mairie",49.3057618833,1.611858987,0,1
20311838,CERMA1,"CERGY - Marjobert",49.0411456165,2.0735517413,0,
20312548,SPAPA1,"SAINT-PAUL - Parc",49.4206862421,1.9825175913,0,
20311997,FMTFO1,"MONTCHEVREUIL - Tirmont Ferme des Ormes",49.28271317,2.014761218,0,
20312226,MEBMA2,"MARSEILLE-EN-BEAUVAISIS - Maison de retraite",49.5757842659,1.9549725307,0,
20312243,MEVEC1,"MONTAGNY-EN-VEXIN - Ecole",49.195955146,1.7995522939,0,
20311987,FLVLI2,"FLAVACOURT - Lincourt école",49.3451137926,1.8364818156,0,
20311835,CEBSO2,"CUIGY-EN-BRAY - Les solons",49.4419741102,1.8290228712,0,
20311688,BCHEG1,"MONTCHEVREUIL - Bachivillers",49.2890826628,1.9635093974,0,
20311750,BLCEN1,"BLACOURT - Mairie Ecole",49.464840286,1.8610675186,0,1
20312703,BVLMA1,"BOUCONVILLERS - Mairie",49.1757013759,1.9028126469,0,
20312704,BVLPE1,"BOUCONVILLERS - Périscolaire",49.1754051683,1.9028956585,0,
20312009,FOSJA2,"BORNEL - Fosseuse Les Hauts",49.2126148954,2.1855406728,0,
20311993,FMECP1,"MONTCHEVREUIL - Ecole Primaire",49.2809940984,2.0045643791,0,
20311992,FMECM1,"MONTCHEVREUIL - Ecole Maternelle",49.2819057668,2.0036735694,0,1
20312066,HADEC1,"HADANCOURT-LE-HAUT-CLOCHER - Ecole",49.1861076996,1.8544910149,0,1
20312114,HRDEC1,"HARDIVILLERS - Ecole",49.61644674,2.2222784296,0,
20312092,HENPL1,"HENONVILLE - Place",49.2075244816,2.0520215047,0,1
20311822,CAPEC1,"LACHAPELLE-AUX-POTS - Armentières école",49.4551168035,1.921877568,0,
20312194,LTTRO1,"LATTAINVILLE - Mairie",49.2434606699,1.8139151175,0,
20312200,LVLEC1,"LIERVILLE - Ecole",49.1903160974,1.8829576723,0,
20312176,LIHEC1,"LIHUS - Ecole",49.6053133472,2.0444100476,0,1
20312270,MNNCE2,"MONNEVILLE - Centre",49.2061336838,1.9752701083,0,
20312219,MBRPO1,"MONTREUIL-SUR-BRÊCHE - Poteaux",49.5088836506,2.2747091847,0,
20312216,MBRCO1,"MONTREUIL-SUR-BRÊCHE - Couvremont",49.511352943,2.2652596578,0,
20312090,HEIMO1,"HEILLES - Mouchy la Ville",49.3317411431,2.2834680884,0,1
20312330,NOVCE1,"NOVILLERS - Centre",49.2710057131,2.2138604323,0,
20312131,JOUHO1,"JOUY-SOUS-THELLE - Les Horgnes",49.32527337,1.9413812033,0,
20312455,SDEPL1,"SAINT-DENISCOURT - Place de l'église",49.6071255373,1.8718589934,0,1
20312483,SGE981,"SAINTE-GENEVIÈVE - 98 RD 1001",49.2889958638,2.2009109775,0,1
20312529,SOCRD1,"SAINT-OMER-EN-CHAUSSEE - Rd901",49.5302737122,2.0034721526,0,
20312573,SSPCE1,"SAINT-SAMSON-LA-POTERIE - Centre",49.5911263844,1.7434679485,0,1
20312588,STHME1,"SAINT-THIBAULT - Menantissart",49.6963365446,1.8233517189,0,
20312571,SRSEC1,"SERANS - Ecole",49.1876128894,1.831114417,0,
20312572,SRSPS1,"SERANS - Le petit Serans",49.2048951706,1.8337042037,0,
20312660,VMNEC1,"LE VAUMAIN - Ecole",49.3359237423,1.8694741898,0,
20312656,VIERD1,"VIEFVILLERS - Rd 930",49.6104845352,2.133042988,0,
20311682,BBSEC1,"BOUBIERS - Ecole",49.2211060396,1.8726718921,0,1
20312019,FROCO1,"FROISSY - Collège Gérard Philipe",49.5650599,2.2220772722,0,1
20312020,FROEC1,"FROISSY - Ecole",49.5651746218,2.2222945028,0,1
20312109,HNNMO1,"HANNACHES - Mourseux",49.5140245551,1.7988034608,0,
20312705,LAVEC1,"LAVILLETERTRE - Ecole",49.1953029788,1.9285957711,0,
20312289,MSCSC1,"LE MESNIL-CONTEVILLE - Scolaire",49.6688814865,2.0591430023,0,1
20312339,NSPSB1,"LA NEUVILLE-SAINT-PIERRE - Rue des bonhommes",49.5277784126,2.2040865837,0,
20312390,POUCE1,"POUILLY - Centre",49.2725833954,2.0319113067,0,1
20312553,SPCCM1,"SAINT-PIERRE-ES-CHAMPS - Montel-Chemin du Moulin",49.4265643309,1.7261339481,0,
20312462,SENBL1,"SENOTS - Bléquencourt",49.2530349223,2.0119114193,0,1
20312467,SERPA1,"SERIFONTAINE - Cocagne",49.3547940692,1.7726469323,0,1
20312535,SONDI1,"SONGEONS - Rue de Dieppe",49.5475854358,1.8477230461,0,1
20312606,THRMO1,"THERINES - Montaubert",49.5973776028,1.9099336372,0,
20312008,FOSCI1,"BORNEL-Fosseuse Cimetière",49.2116451965,2.1896603074,0,
20311764,BLRMA1,"BONLIER - Eglise",49.4704749666,2.1503746892,0,
20312323,NIVMA1,"NIVILLERS - Mairie",49.45750327,2.1663807726,0,1
20312408,RCHEG1,"ROCHY-CONDE - Eglise",49.4007772904,2.181663479,0,
20312410,RCHPO1,"ROCHY-CONDE - Poste",49.4036322552,2.178679782,0,1
20312236,MERIM1,"MERU - Immaculée Conception",49.2441628082,2.1266227418,0,1
20312091,HENCH1,"HENONVILLE - Château",49.2073137038,2.0531214208,0,1
20311785,BSLPI1,"BRESLES - Rue Pierre Demeru",49.4102249829,2.2539190204,0,1
20312301,MVLEG1,"MORVILLERS - Eglise",49.5808649761,1.8715810114,0,1
20312536,SONEC2,"SONGEONS - Ecole maternelle",49.5507228649,1.8539838582,0,1
20312097,HERFR1,"HERMES - Friancourt",49.3455859946,2.2447153306,0,1
20312372,PCH911,"PONCHON - 915 rue de Pierrepont",49.3615147686,2.1772599772,0,1
20312485,SGEEC1,"SAINTE-GENEVIÈVE - Ecole Camille Claudel",49.2895945898,2.1961897658,0,1
20311663,AUNNE2,"AUNEUIL - La Neuville-sur-Auneuil centre",49.3620710535,1.9841562417,0,
20312340,NVCAB1,"LA NEUVILLE-VAULT - Cabane",49.4867731625,1.950122842,0,
20312706,NVCEN2,"LA NEUVILLE-VAULT - Centre",49.4866645072,1.9505528091,0,
20312341,NVMAN1,"LA NEUVILLE-VAULT - Manoir",49.48742267,1.9587828343,0,
20312490,SGEPE1,"SAINTE-GENEVIÈVE - Le petit Fercourt",49.2937067295,2.1831516871,0,
20312517,SNTBY1,"SENANTES - Le bray",49.4556137065,1.8023635854,0,
20312516,SNTBR1,"SENANTES - Le bray centre",49.462693387,1.8144337534,0,1
20312306,NEABO1,"NEAUFLES-SAINT-MARTIN - Les Bosquets",49.2833333283,1.7347624421,0,
20311966,FERRD1,"FERRIÈRES-EN-BRAY - RD145",49.4939040975,1.7497048174,0,
20312717,MDDGY1,"MONTDIDIER - Collège Saint Vincent",49.6463829362,2.5693650207,0,
20311935,ESMQU1,"ESCAMES - Le quesnoy",49.5487521761,1.8065644616,0,1
20312416,REUFO2,"REUIL-SUR-BRÊCHE - Rue du four",49.5206121969,2.2206105289,0,
20312434,SAFBO1,"SAINT-ANDRE-FARIVILLERS - Bois l'Abbé",49.5709319209,2.2836600639,0,1
20312671,VSAAU1,"VILLERS-SUR-AUCHY - Auchy",49.4824531831,1.7789239264,0,
20312412,REMCE1,"REMERANGLES - Centre",49.4461403009,2.2856685372,0,
20311736,BEBVI1,"BERNEUIL-EN-BRAY - Les vivrots",49.3648450181,2.0696212284,0,
20312500,SGFMA1,"SAINT-GERMER-DE-FLY - Mare lurin",49.4516239317,1.7667842248,0,1
20312627,TSAMA2,"THIEULOY-SAINT-ANTOINE - Mairie-Ecole",49.6337532227,1.9456032566,0,1
20311624,AGZAU1,"AGNETZ - Gicourt Av. P. Courtial",49.3915042353,2.3766778599,0,
20311627,AGZCO1,"AGNETZ - Collège Ste Jeanne d'Arc",49.3876953968,2.3885584603,0,1
20311629,AGZET1,"AGNETZ - Ronquerolles route d'Etouy",49.4047051831,2.3821684398,0,
20311630,AGZFR1,"AGNETZ - Ronquerolles rue de Froissy",49.3964743516,2.3880984231,0,
20311653,ANDPA1,"ANDEVILLE - Parking orsol",49.2604944426,2.1648440703,0,1
20311786,BSTAB1,"BAILLEUL-SUR-THERAIN - Froidmont rue l'abbaye",49.3833843059,2.2487295526,0,
20311774,BORCO1,"BORNEL - Courcelles 1",49.1925740458,2.1852706828,0,1
20311805,BULEG1,"BULLES - Eglise",49.4585962754,2.3269618182,0,
20311898,CVGCE2,"CAUVIGNY - Eglise",49.3016355569,2.2479490561,0,
20311900,CVGEC1,"CAUVIGNY - Ecole",49.3013141067,2.2475795492,0,1
20311899,CVGCH1,"CAUVIGNY - Château rouge",49.2978154486,2.2614789036,0,1
20311902,CVGFE1,"CAUVIGNY - Fercourt",49.3101705808,2.2454180316,0,1
20311828,CBYCO1,"CHAMBLY - Collège Jacques Prévert",49.1689665504,2.2545498425,0,1
20311829,CBYMA1,"CHAMBLY - Marnière",49.1702653846,2.2430500904,0,1
20311864,CIRTI1,"CIRES-LÈS-MELLO - Le tillet place",49.2577450773,2.3273065763,0,1
20311873,CMTLY1,"CLERMONT - Lycée Cassini",49.384324144,2.4070478682,0,1
20312191,LSTDE1,"LE COUDRAY-SUR-THELLE - Dépose",49.3063275596,2.1221474262,0,
20312192,LSTEC1,"LE COUDRAY-SUR-THELLE - Centre Ecole",49.3063275596,2.1221474262,0,
20311885,CROCE1,"CROUY-EN-THELLE - Mairie",49.2133430902,2.3206233637,0,1
20312166,LDGEC1,"LA DRENNE - Le Déluge",49.2972306643,2.1095999344,0,1
20311908,DIECE1,"DIEUDONNE - Centre",49.230676256,2.2483397001,0,1
20311909,DIEFO1,"DIEUDONNE - La fosse Saint Clair",49.2494350935,2.2569543085,0,1
20311922,ERCST1,"ERCUIS - Stade",49.2317792784,2.2999106025,0,
20311921,ERCCE1,"ERCUIS - Centre",49.2337255068,2.3035792583,0,1
20311951,ETOGU1,"ETOUY - Guidon",49.4161352973,2.3704983056,0,
20311952,ETOPL1,"ETOUY - Place",49.4200698307,2.3608706464,0,
20312010,FOUMA1,"FOURNIVAL - Mairie",49.4669221876,2.3812857841,0,1
20312011,FOUPL1,"FOURNIVAL - Le plésseret",49.4748763079,2.3866065356,0,
20312096,HERCA1,"HERMES - Caillouel",49.3532453107,2.2657736138,0,1
20312112,HONBU2,"HONDAINVILLE - Butteaux",49.3535757062,2.3103190139,0,
20312113,HONCE1,"HONDAINVILLE - Ecole",49.3382879725,2.3016289649,0,
20312162,LBSMA1,"LABOISSIÈRE-EN-THELLE - Rue Madame",49.2961050831,2.1600705137,0,1
20312157,LBSCR1,"LABOISSIÈRE-EN-THELLE - Crèvecoeur carrefour",49.279713026,2.1450336078,0,1
20312240,METPA1,"LE MESNIL-EN-THELLE - Parc du Thelle",49.1779555213,2.2857400653,0,1
20312241,METQU1,"LE MESNIL-EN-THELLE - Quatres chemins",49.1658256918,2.2855500877,0,
20312287,MSBCE1,"LE MESNIL-SUR-BULLES - Centre",49.4858266292,2.3451169564,0,
20312245,MFLCE1,"MORTEFONTAINE-EN-THELLE - Mairie",49.2633560074,2.1884102776,0,1
20312314,NETBO1,"NEUILLY-EN-THELLE - Bois des cauches",49.2481320118,2.2753238339,0,
20312315,NETCO1,"NEUILLY-EN-THELLE - Col. H. De Montherlant",49.215328228,2.2817219002,0,1
20312316,NETHO1,"NEUILLY-EN-THELLE - Hôtel de Ville",49.2242427668,2.2857871953,0,1
20312327,NOARD2,"NOAILLES - RD 1001",49.3298037691,2.1998018165,0,1
20312399,PSBCE1,"LE PLESSIER-SUR-BULLES - Centre",49.4962398764,2.3157755463,0,
20312413,RESEC2,"LA DRENNE - Ressons l'Abbaye",49.3019947372,2.0893304961,0,
20312480,SFELO1,"SAINT-FELIX - Lotissement",49.3478453572,2.2916687844,0,
20312481,SFEPL1,"SAINT-FELIX - Place",49.3493459633,2.2818287742,0,
20312488,SGEMA1,"SAINTE-GENEVIÈVE - Mairie",49.2894081261,2.1980770901,0,1
20312509,SJCGA1,"SAINT-JUST-EN-CHAUSSEE - Gare",49.5033249634,2.429418032,0,1
20312609,THUST1,"THURY-SOUS-CLERMONT - Rue des tilleuls",49.3578755154,2.3165382959,0,
20312608,THUEG1,"THURY-SOUS-CLERMONT - Mairie",49.3570097858,2.3251143899,0,
20312631,ULLCE1,"ULLY-SAINT-GEORGES - Cavillon centre",49.2577335789,2.2591735927,0,
20312633,ULLEG1,"ULLY-SAINT-GEORGES - Eglise",49.279884622,2.2800266322,0,
20312632,ULLCO1,"ULLY-SAINT-GEORGES - Cousnicourt",49.2918985886,2.2713573753,0,
20312634,ULLMO1,"ULLY-SAINT-GEORGES - Moulincourt",49.264419511,2.2485988327,0,
20312682,VSSFR1,"VILLERS-SAINT-SEPULCRE - Fresnoy",49.3607139708,2.2211793313,0,
20312137,LAFMA1,"LAFRAYE - Mairie",49.4945438966,2.2116505468,0,1
20311936,ESPCE1,"ESPAUBOURG - Mairie",49.4211040057,1.8665024516,0,1
20311940,ESPMA1,"ESPAUBOURG - Mairie arrivée ATSEM",49.4211040057,1.8665024516,0,1
20311941,ESPMA2,"ESPAUBOURG - Mairie départ",49.4211040057,1.8665024516,0,1
20312077,HCHCH1,"HERCHIES - Chemin du Brulé",49.4884241196,2.0102116596,0,1
20312651,VENGR1,"VENDEUIL-CAPLY - Grande rue",49.6174726192,2.3009201527,0,1
20312653,VENRD1,"VENDEUIL-CAPLY - RD 1001",49.6047709697,2.2879699317,0,
20312654,VENRO1,"VENDEUIL-CAPLY - Rte de Troussencourt",49.6050316469,2.2885198728,0,
20312725,THUBA2,"THURY-SOUS-CLERMONT - Rue d'en bas 2",49.3554295567,2.3153058647,0,
20312222,MDDLY1,"MONTDIDIER - Lycée Jean Racine",49.6535834814,2.5773248326,0,
20311858,CHXEC1,"CHEPOIX - Ecole",49.605512959,2.3839281881,0,
20311949,ESSSA1,"ESSUILES - Saint Rimault",49.4747028038,2.2767496724,0,
20312205,LVSLO1,"LAVERSINES - Lotissement",49.416485132,2.1971797209,0,
20312328,NOUCE2,"NOURARD-LE-FRANC - Centre",49.4993131039,2.3722779153,0,
20311901,CVGFA1,"CAUVIGNY - Fayel rue de cauvigny",49.3152753404,2.2313992823,0,
20312324,NOACA1,"NOAILLES - Centre",49.3292276495,2.2007517911,0,1
20311918,ERACE1,"ERAGNY-SUR-EPTE - Centre",49.3143326901,1.7749724294,0,
20311632,ALLCI1,"ALLONNE - Cimetière",49.4086842697,2.1118706155,0,
20311664,AUNPA1,"AUNEUIL - Passage à niveau",49.3718768783,1.9904754408,0,
20311723,BEAMD1,"BEAUVAIS - Parc Marcel Dassault",49.4501729777,2.097521023,0,
20311701,BEABB1,"BEAUVAIS - Bois brûlet",49.4515518939,2.0759464193,0,
20311704,BEABR1,"BEAUVAIS - Brière",49.4284826178,2.089006311,0,
20311722,BEALY1,"BEAUVAIS - LP Jean-Baptiste Corot",49.420303261,2.0781307091,0,1
20311721,BEALI1,"BEAUVAIS - Lilas",49.446047657,2.0941417621,0,
20311703,BEABP1,"BEAUVAIS - BP-Pressoir Coquet",49.433615276,2.0928999978,0,
20312615,TLLCE1,"TILLE - Centre",49.4643848064,2.1086392317,0,
20311727,BEAPL1,"BEAUVAIS - Plouy Saint Lucien",49.4707129986,2.0828609835,0,
20312422,ROMPA1,"ROMESCAMPS - Passage à niveau",49.7096528013,1.7966348397,0,
20312352,ONSVI1,"ONS-EN-BRAY - Vivier danger-Chemin des manières",49.4348242768,1.9211019452,0,
20312381,PEBFI2,"PUISEUX-EN-BRAY - Le fil centre",49.405093458,1.7978529626,0,
20312540,SONRD1,"SONGEONS - Ecole primaire",49.5466246201,1.8511202807,0,1
20312661,VMNFO1,"LE VAUMAIN - La fonderie carrefour",49.3494034709,1.8804922965,0,1
20312439,SAFHP1,"SAINT-ANDRE-FARIVILLERS - Hedencourt-Place",49.5873720994,2.2881896207,0,
20312438,SAFHE1,"SAINT-ANDRE-FARIVILLERS - Hedencourt école",49.58629204,2.2939297301,0,1
20311978,FLERD1,"FLEURY - RD3",49.2425241154,1.9672712839,0,1
20312702,WELPE1,"WELLES-PERENNES - Perennes",49.6236245441,2.4995359904,0,
20312039,GISGI2,"GISORS - Côte d'Hérouval",49.2614429058,1.7862323741,0,
20311920,ERAPL1,"ERAGNY-SUR-EPTE - Place",49.3114730903,1.7758419194,0,1
20312431,RSPRN1,"LA RUE-SAINT-PIERRE - RN31",49.4102640629,2.3009568602,0,1
20311686,BCHAT1,"BROYES - Château",49.6314428599,2.4545071978,0,1
20312333,NOYHI1,"NOYERS-SAINT-MARTIN - Hibiscus",49.5549135769,2.2594403336,0,
20311642,AMLEM1,"AUMALE - Ecole maternelle",49.7740741664,1.7508233951,0,
20311644,AMLHD1,"AUMALE - Collège Henry Dunant",49.7736813598,1.7508357202,0,1
20311710,BEAFE1,"BEAUVAIS - Felix Faure",49.4348742804,2.0891948751,0,1
20311711,BEAFF2,"BEAUVAIS - Lycée Felix Faure",49.4349448362,2.0885609388,0,1
20312277,MOLRD1,"MOLIENS - Rd 70",49.6702216215,1.805835289,0,
20311793,BSTGR1,"BAILLEUL-SUR-THERAIN - Rue du gravier",49.3845293598,2.215027101,0,
20312133,JOUPH1,"JOUY SOUS THELLE - Rue des puits",49.3176193472,1.9697487441,0,
20311814,BVSCR1,"BOUVRESSE - Rue de Crillon",49.6506479533,1.7546270945,0,
20312648,VDPMA1,"VALDAMPIERRE - Les marettes haut",49.3163530256,2.0406410811,0,1
20312649,VDPST1,"VALDAMPIERRE - Stade les marettes",49.3122641385,2.0438010532,0,
20312172,LIAEC1,"LIANCOURT-SAINT-PIERRE - Mairie-Ecole",49.2354616403,1.9089918416,0,1
20312728,LIAPO1,"LIANCOURT-SAINT-PIERRE - Poste",49.2354863258,1.9089856334,0,
20312732,AMSCI2,"AMIENS - Cité providence AB",49.8794406075,2.2955579875,0,
20311961,FBSOU1,"FONTAINE-BONNELEAU - Les sources",49.6555605989,2.1388627916,0,1
20311880,CPXCE2,"CAMPEAUX - Ecole",49.6188405256,1.7563490595,0,1
20312175,LIATO1,"LIANCOURT-SAINT-PIERRE - Les tourbières",49.2426254121,1.918133984,0,
20311872,CMTGA1,"CLERMONT - Gare",49.3847151395,2.4174975933,0,1
20311934,ESMMO1,"ESCAMES - Hémécourt-Moulin de la gachère",49.5496436226,1.8158442037,0,1
20312031,GERCA1,"GERBEROY - Carrefour",49.5295241849,1.8492033742,0,1
20312221,MDDGA1,"MONTDIDIER - Gare",49.6417135851,2.5630651572,0,1
20312619,TOUEC1,"TOURLY - Ecole",49.2246250621,1.9441125608,0,
20311718,BEAIS1,"BEAUVAIS - ISAB-Institut LaSalle",49.4597227529,2.0683117043,0,
20312514,SNTAM1,"SENANTES - Amuchy",49.479746717,1.8481225407,0,1
20311754,BLEMU1,"BONNEUIL-LES-EAUX - Rue des murets",49.6746085328,2.2458102108,0,
20312589,SULCE1,"SULLY - D133",49.5586591306,1.783537919,0,
20311612,ABAEC1,"ABANCOURT - Ecole",49.6966028516,1.7645755085,0,1
20311614,ABAMA1,"ABANCOURT - Mairie",49.6965136303,1.7651744311,0,
20311775,BORLA1,"BORNEL - Landrimont",49.1833569105,2.2033630247,0,
20311797,BTLEC1,"BRETEUIL - Ecole La Ceriseraie",49.6322161217,2.297592053,0,1
20311796,BTLCP1,"BRETEUIL - Le chat perché",49.6324766852,2.2915580834,0,1
20312379,PEBBU1,"PUISEUX-EN-BRAY - Le but david - Calvaire",49.4086219557,1.7638939468,0,1
20311817,CANMO1,"CANNY-SUR-THERAIN - 27 Rue de Moimont",49.6160593356,1.7228746699,0,1
20311638,AMBCI1,"AMBLAINVILLE - Cimetière",49.2045344292,2.1255867232,0,1
20312231,MEREG1,"MERU - Eglise Saint Lucien",49.2358468971,2.1339809453,0,
20311906,DELEC1,"DELINCOURT - Ecole",49.2466178564,1.830459413,0,
20311882,CPXEC1,"CAMPEAUX - Mairie",49.6199599624,1.7566128046,0,1
20312145,LANPE1,"LANNOY-CUILLERE - Les peupliers",49.6995987045,1.7346578322,0,
20312375,PCHMA1,"PONCHON - Mairie-Ecole",49.3487944556,2.1953799951,0,1
20312668,VRXBA1,"LE VAUROUX - Bas",49.3703741276,1.9308147902,0,
20312679,VSQVI1,"VERDEREL-LÈS-SAUQUEUSE - Rue St Martin",49.5031740862,2.0965961167,0,1
20311696,BCVEC1,"BACOUEL - Ecole",49.6233270075,2.3838019031,0,1
20311698,BCVMA1,"BACOUEL - Mairie",49.6224785623,2.3831194182,0,
20311810,BVOEV1,"BEAUVOIR - Evauchaux",49.5936066996,2.3172406015,0,1
20312577,SSUEE1,"SAINT-SULPICE - Ecole primaire",49.3504764571,2.1263404904,0,1
20312560,SQPBH1,"SAINT-QUENTIN DES PRES-  BEAULEVRIER Le haut",49.5206919558,1.7530008741,0,
20312561,SQPCE1,"SAINT-QUENTIN DES PRES - Eglise",49.52067855,1.7530148243,0,
20312036,GISCO1,"GISORS - Collège Jeanne d'Arc",49.2782384303,1.7787606581,0,1
20311616,ABBCA1,"ABBECOURT - Périscolaire",49.3543049348,2.1517963079,0,1
20311656,ASLAS1,"ABBEVILLE-SAINT-LUCIEN - ATSEM",49.513662852,2.1695471553,0,1
20311628,AGZCR1,"AGNETZ - Ronquerolles rue de Crèvecoeur",49.3924235619,2.3918781866,0,1
20311694,BCVAS1,"BACOUEL - ATSEM",49.6160757776,2.387022868,0,1
20311680,BAZEC1,"BAZANCOURT - Ecole",49.5538980374,1.7345949212,0,1
20311705,BEACO1,"BEAUVAIS - Collège Henri Baumont",49.438385082,2.101903143,0,1
20311939,ESPLA2,"ESPAUBOURG - Les landrons pont fleury",49.4411707499,1.8725748642,0,
20311748,BLARA1,"BLARGIES - Raiderie",49.6690816646,1.7933287636,0,
20311770,BONEC1,"BONVILLERS - Ecole",49.5898394035,2.3549626631,0,1
20311773,BORCG1,"BORNEL - Collège Françoise Sagan",49.2009672692,2.2161020539,0,1
20311816,CAMCA1,"CAMPREMY - Place",49.5709096394,2.3115604835,0,1
20311844,CEVEC1,"CHAUMONT-EN-VEXIN - Ecole",49.2654509244,1.8854507977,0,
20311845,CEVGA1,"CHAUMONT-EN-VEXIN - Gare",49.2614368642,1.8724277666,0,1
20311865,CLGBO2,"CREVECOEUR-LE-GRAND - La bordé",49.6161609581,2.0954744914,0,
20311910,DIEMO1,"DIEUDONNE - Monument aux morts",49.2317427191,2.2508013402,0,1
20311929,ESMCE1,"ESCAMES - Eglise",49.5534368813,1.7996016408,0,
20311932,ESMHV1,"ESCAMES - Hevecourt",49.5446739733,1.7869038559,0,1
20311943,ESPVA1,"ESPAUBOURG  - Rue des vaches",49.4277875854,1.8677124116,0,
20311956,FAEEC1,"FAY-LES-ETANGS - Ecole",49.2442128603,1.935039628,0,1
20312024,FSQCA1,"LE FAY ST QUENTIN - Cantine",49.4511131793,2.2518521147,0,1
20312026,FSQEC1,"LE FAY ST QUENTIN - Ecole",49.448772064,2.250251804,0,1
20311990,FLYAB1,"FLECHY - Abri",49.6589798277,2.2343506385,0,1
20312004,FOREC1,"FORMERIE - Ecoles",49.6506456807,1.7277197595,0,1
20311996,FMPLA1,"FRESNEAUX-MONTCHEVREUIL - Place",49.2811381089,2.0038493494,0,
20312046,GLYEC1,"GLATIGNY - Rue Dubos",49.4970998613,1.8944046633,0,
20312332,NOYFE1,"NOYERS-SAINT-MARTIN - Ferme de Gouy",49.535647213,2.273911373,0,1
20312064,GRERD1,"GREMEVILLERS - Choqueuse RD 930",49.5629275702,1.9140275425,0,
20312071,HANEC1,"HANVOILE - Ecole",49.5114394484,1.8803886129,0,
20312116,HRDSC2,"HARDIVILLERS - Scolaire Lieu dit Les Phosphates",49.6187951674,2.2458194534,0,
20312087,HECHC2,"HECOURT - 28 rue de Gournay Haincourt",49.5232596362,1.7851878425,0,
20312086,HECHC1,"HECOURT - 6 rue de Gournay Haincourt",49.5267504888,1.783018261,0,
20312085,HECCE1,"HECOURT - Centre",49.5226676284,1.7603868277,0,
20312089,HEIEC1,"HEILLES - Ecole",49.3349989157,2.2682304972,0,1
20312103,HETEC1,"HETOMESNIL - Ecole",49.626029923,2.0314318977,0,1
20312083,HEBMA1,"HODENC-EN-BRAY - Marivaux",49.4659265323,1.9157998009,0,1
20312120,HSSEP1,"LA HOUSSOYE - Ecole-Place",49.3557291507,1.9410260378,0,1
20312160,LBSEC2,"LABOISSIERE-EN-THELLE - Groupe scolaire",49.2905873204,2.1605196108,0,
20312159,LBSEC1,"LABOISSIÈRE-EN-THELLE - Parfondeval",49.2898939696,2.1366275475,0,1
20312151,LBOCE1,"LABOSSE - Lavoir",49.3441218762,1.8951344691,0,1
20311823,CAPEC2,"LACHAPELLE-AUX-POTS - Ecole",49.4493810038,1.9020487064,0,1
20312189,LSOEM1,"LALANDE-EN-SON - Ecole maternelle",49.3906712054,1.7826184808,0,
20312729,LSOBE1,"LALANDE-EN-SON - Bibliothèque-Ecole",49.3908431561,1.7828935869,0,
20312228,MERCH1,"MERU - La chesnaie",49.2276941935,2.1317882002,0,
20312237,MERLP1,"MERU - LP Lavoisier",49.2290938,2.1254780168,0,1
20312260,MILM1,"MILLY-SUR-THERAIN - Ecole maternelle",49.5045796981,1.9983562836,0,1
20312255,MILEP1,"MILLY-SUR-THERAIN - Ecole primaire",49.5034078319,1.9968710279,0,1
20312259,MILLO1,"MILLY-SUR-THERAIN - Lotissement",49.4980442206,1.9996346917,0,
20312215,MBRCA1,"MONTREUIL-SUR-BRÊCHE - Cantine",49.5111648439,2.2661436165,0,1
20312217,MBREM1,"MONTREUIL-SUR-BRÊCHE - Ecole maternelle",49.5094688389,2.273010971,0,1
20312284,MRGMA1,"MORANGLES - La Mare du Bois",49.1948072389,2.2927938944,0,
20312247,MFLMA1,"MORTEFONTAINE-EN-THELLE - La Mare d'Ovillers",49.2540303554,2.2037272597,0,1
20312318,NEUEC1,"NEUVILLE-BOSC - Ecole",49.2000498517,2.0117216748,0,
20312336,NSOEC1,"LA NEUVILLE-SUR-OUDEUIL - Ecole",49.5734491112,2.0075933808,0,
20312337,NSOGA1,"LA NEUVILLE-SUR-OUDEUIL - Garderie",49.5739873845,2.0081898382,0,
20312326,NOAGA1,"NOAILLES - Garderie",49.3275593158,2.1971825348,0,1
20312363,OUREC1,"OURSEL-MAISON - La neuve rue école",49.5923594968,2.1625698542,0,1
20312364,OURNE1,"OURSEL-MAISON - La neuve rue St Nicolas",49.5912727296,2.1579504227,0,1
20312394,PRCEC1,"PORCHEUX - Ecole",49.3315699602,1.924370734,0,1
20312395,PRCLS1,"PORCHEUX - Le saussay",49.3459363608,1.9287403165,0,1
20312401,QAUMA1,"LE QUESNEL-AUBRY - Ecole Mairie",49.5076751103,2.3095301381,0,
20312404,QCFFL1,"QUINCAMPOIX-FLEUZY - Fleuzy",49.7568175958,1.7555937285,0,
20312453,SCIMR1,"SAINT-CREPIN-IBOUVILLERS - Marivaux",49.247678273,2.0565284477,0,1
20312491,SGERP1,"SAINTE-GENEVIÈVE - Ecole Roger Pauchet",49.2889340749,2.1999042211,0,1
20312487,SGELV1,"SAINTE-GENEVIEVE - Collège Léonard de Vinci",49.2931980512,2.1876267826,0,1
20312502,SGFRB1,"SAINT GERMER DE FLY - Rue du Bray",49.450525476,1.7899706385,0,
20312563,SQPHY1,"SAINT-QUENTIN DES PRES -  Hyancourt 1",49.5078637657,1.7263900221,0,
20312564,SQPHY2,"SAINT-QUENTIN DES PRES -  Hyancourt 2",49.5023318074,1.7310790396,0,
20312559,SQPBB1,"SAINT-QUENTIN DES PRES - BEAULEVRIER Le bas",49.5332635386,1.7560115848,0,
20312562,SQPEC1,"SAINT-QUENTIN DES PRES - Ecole",49.5205644827,1.7540379788,0,1
20312558,SPQES1,"SAINT-QUENTIN DES PRES - Esquesne",49.5149461894,1.7485070133,0,
20312565,SQPMO1,"SAINT-QUENTIN DES PRES - Mothois",49.5063422555,1.7450636838,0,
20312578,SSUEM1,"SAINT-SULPICE - Ecole maternelle",49.351078758,2.1265717882,0,
20312444,SAVCA1,"SAVIGNIES - Cantine",49.4641432157,1.9670257578,0,1
20312446,SAVRR1,"SAVIGNIES - Rue rouge",49.4660360779,1.9654960303,0,1
20312534,SONCS1,"SONGEONS - Centre Social",49.5458635892,1.8534034271,0,
20312541,SONRI1,"SONGEONS - Rue de Riffin",49.5698814184,1.8369860258,0,
20312601,THECA1,"THERINES - Cantine",49.6035437557,1.8938429115,0,1
20312610,THXEM1,"THIEUX - Ecole maternelle",49.5421369356,2.3113972335,0,1
20312611,THXEP1,"THIEUX - Ecole primaire",49.5414208358,2.3123318459,0,
20312620,TOUMA1,"TOURLY - Mairie",49.2235312341,1.948265263,0,1
20312596,TCHCG1,"TRIE-CHÂTEAU - Cantine",49.2840904435,1.8243159407,0,
20312597,TCHEC1,"TRIE-CHÂTEAU - Ecole primaire",49.2842470206,1.8231135425,0,1
20312622,TRIEC1,"TRIE-LA-VILLE - Ecole",49.2889983671,1.835017978,0,1
20312637,VBABL1,"VILLEMBRAY - Rue de Blacourt",49.4741195674,1.8703236991,0,1
20312643,VBTLP1,"VILLERS-SAINT-BARTHELEMY - Le ply",49.4027478088,1.9443932129,0,
20312645,VBTMV1,"VILLERS-SAINT-BARTHELEMY - Marconville",49.4120576207,1.9718487765,0,
20312681,VSSEC1,"VILLERS-SAINT-SEPULCRE - Ecole primaire",49.3659983093,2.2142570895,0,1
20311643,AMLEP1,"AUMALE - Ecole primaire",49.7725786317,1.7498128478,0,
20312322,NFMEM1,"NEUF-MARCHE - Ecole maternelle",49.4236596766,1.7176098191,0,
20312676,VSQGH1,"VERDEREL-LÈS-SAUQUEUSE - Guehengnies",49.5093460793,2.0704898675,0,
20312211,MAINE1,"MAISONCELLE-TUILERIE - La neuve rue",49.5918818754,2.2232913369,0,
20312365,OURNR1,"OURSEL-MAISON - La neuve rue",49.5918414124,2.2232413441,0,
20311646,AMSCH1,"AMIENS - Laennec Quai C",49.8714748329,2.2563333219,0,
20312234,MERGA1,"MERU - Gare",49.2320317021,2.1319157974,0,1
20312343,OMEEP1,"OMECOURT - Epeaux",49.6145734936,1.8210066006,0,1
20312347,ONSPO1,"ONS-EN-BRAY - Le Pont qui penche Boulangerie",49.4176847348,1.939697908,0,
20312411,REICE1,"REILLY - Rue du Réveillon",49.2434998297,1.8476881701,0,1
20312418,ROMBE1,"ROMESCAMPS - Bernapré",49.705928922,1.7897991636,0,1
20312710,ULLCH1,"ULLY-SAINT-GEORGES - Cavillon Rue de la Chapelle",49.2609227015,2.2587217619,0,
20312687,VVRCE1,"VILLERS-VERMONT - Centre",49.5763598088,1.7433123325,0,1
20312711,VVREC1,"VILLERS-VERMONT - Ecole",49.577104433,1.7431379297,0,
20312719,FLENE2,"FLEURY - Neuvillette Abri",49.2298922945,1.9637985671,0,
20312049,GOICE1,"GOINCOURT - Place",49.4264040878,2.0380419531,0,
20312495,SGFCI1,"SAINT-GERMER-DE-FLY - Cité Colozier",49.4468004699,1.8051584984,0,
20311944,ESQMA1,"ESQUENNOY - Mairie",49.658242776,2.268236807,0,1
20312721,HODCE2,"HODENC-L'EVEQUE - Centre 2",49.3371287783,2.149161235,0,
20312731,VROCL1,"VROCOURT - Clos guérin",49.5252772259,1.8859732224,0,
20312666,VROMO1,"VROCOURT - Moulin du Clos Guérin",49.529252864,1.8808832779,0,1
20312424,ROUME1,"ROUVROY-LES-MERLES - Merle",49.6477146405,2.3700483156,0,
20311739,BERMA1,"BERTHECOURT - Place des fêtes",49.3527638285,2.2237482451,0,1
20311841,CERUN1,"CERGY - Université",49.0395198911,2.0759434628,0,
20312723,LBSRM1,"LABOISSIÈRE-EN-THELLE - Rue de Méru",49.2875625129,2.1593823381,0,
20312726,BSLRO1,"BRESLES - Rue du Président Roosevelt",49.409783333,2.2486917266,0,
20312498,SGFGA2,"SAINT-GERMER-DE-FLY - Rue derrière le bois",49.4556956131,1.7797942604,0,1
20312727,SSPGO1,"SAINT-SAMSON-LA-POTERIE - Rue de Gournay",49.5861256635,1.7457131261,0,
20312730,NVCDV1,"LA NEUVILLE VAULT - La Croix du Vault",49.4836829769,1.9571086418,0,
20311649,AMSSR1,"AMIENS - Gare St-Roch station ESSO",49.8939275789,2.2847471777,0,
20311867,CLGCO1,"CREVECOEUR-LE-GRAND - Collège Jehan Le Fréron",49.6070801877,2.0735934306,0,1
